[
  {
    "id": 1,
    "date": "1/1/2025",
    "name": "Northern Saw-whet Owl",
    "location": "Lincoln",
    "lat": 40.913667,
    "lng": -100.6025,
    "photoId": null,
    "audioId": 628595907,
    "lifeBird": true,
    "stateBird": true
  },
  {
    "id": 2,
    "date": "1/1/2025",
    "name": "Northern Cardinal",
    "location": "Keith",
    "lat": 41.213919,
    "lng": -101.665138,
    "photoId": null,
    "audioId": null,
    "lifeBird": false,
    "stateBird": false
  },
  {
    "id": 3,
    "date": "1/1/2025",
    "name": "Song Sparrow",
    "location": "Keith",
    "lat": 41.213919,
    "lng": -101.665138,
    "photoId": 632747398,
    "audioId": null,
    "lifeBird": false,
    "stateBird": false
  },
  {
    "id": 4,
    "date": "1/1/2025",
    "name": "Dark-eyed Junco",
    "location": "Keith",
    "lat": 41.213919,
    "lng": -101.665138,
    "photoId": 628570733,
    "audioId": null,
    "lifeBird": false,
    "stateBird": false
  },
  {
    "id": 5,
    "date": "1/1/2025",
    "name": "Cedar Waxwing",
    "location": "Keith",
    "lat": 41.213919,
    "lng": -101.665138,
    "photoId": null,
    "audioId": null,
    "lifeBird": false,
    "stateBird": false
  },
  {
    "id": 6,
    "date": "1/1/2025",
    "name": "American Robin",
    "location": "Keith",
    "lat": 41.213919,
    "lng": -101.665138,
    "photoId": 631181638,
    "audioId": 637650797,
    "lifeBird": false,
    "stateBird": false
  },
  {
    "id": 7,
    "date": "1/1/2025",
    "name": "European Starling",
    "location": "Keith",
    "lat": 41.213919,
    "lng": -101.665138,
    "photoId": null,
    "audioId": null,
    "lifeBird": false,
    "stateBird": false
  },
  {
    "id": 8,
    "date": "1/1/2025",
    "name": "Winter Wren",
    "location": "Keith",
    "lat": 41.213919,
    "lng": -101.665138,
    "photoId": null,
    "audioId": 643238603,
    "lifeBird": false,
    "stateBird": false
  },
  {
    "id": 9,
    "date": "1/1/2025",
    "name": "White-breasted Nuthatch",
    "location": "Keith",
    "lat": 41.213919,
    "lng": -101.665138,
    "photoId": 641876922,
    "audioId": 637616909,
    "lifeBird": false,
    "stateBird": false
  },
  {
    "id": 10,
    "date": "1/1/2025",
    "name": "American Crow",
    "location": "Keith",
    "lat": 41.213919,
    "lng": -101.665138,
    "photoId": null,
    "audioId": null,
    "lifeBird": false,
    "stateBird": false
  },
  {
    "id": 11,
    "date": "1/1/2025",
    "name": "Blue Jay",
    "location": "Keith",
    "lat": 41.213919,
    "lng": -101.665138,
    "photoId": null,
    "audioId": null,
    "lifeBird": false,
    "stateBird": false
  },
  {
    "id": 12,
    "date": "1/1/2025",
    "name": "Northern Flicker",
    "location": "Keith",
    "lat": 41.213919,
    "lng": -101.665138,
    "photoId": 636436945,
    "audioId": null,
    "lifeBird": false,
    "stateBird": false
  },
  {
    "id": 13,
    "date": "1/1/2025",
    "name": "Hairy Woodpecker",
    "location": "Keith",
    "lat": 41.213919,
    "lng": -101.665138,
    "photoId": 637629907,
    "audioId": 629188510,
    "lifeBird": false,
    "stateBird": false
  },
  {
    "id": 14,
    "date": "1/1/2025",
    "name": "Red-bellied Woodpecker",
    "location": "Keith",
    "lat": 41.213919,
    "lng": -101.665138,
    "photoId": null,
    "audioId": null,
    "lifeBird": false,
    "stateBird": false
  },
  {
    "id": 15,
    "date": "1/1/2025",
    "name": "Eastern Screech-Owl",
    "location": "Keith",
    "lat": 41.213919,
    "lng": -101.665138,
    "photoId": 634264443,
    "audioId": null,
    "lifeBird": false,
    "stateBird": false
  },
  {
    "id": 16,
    "date": "1/1/2025",
    "name": "Red-tailed Hawk",
    "location": "Keith",
    "lat": 41.213919,
    "lng": -101.665138,
    "photoId": 631058053,
    "audioId": null,
    "lifeBird": false,
    "stateBird": false
  },
  {
    "id": 17,
    "date": "1/1/2025",
    "name": "Bald Eagle",
    "location": "Keith",
    "lat": 41.213919,
    "lng": -101.665138,
    "photoId": 630495796,
    "audioId": null,
    "lifeBird": false,
    "stateBird": false
  },
  {
    "id": 18,
    "date": "1/1/2025",
    "name": "Great Blue Heron",
    "location": "Keith",
    "lat": 41.213919,
    "lng": -101.665138,
    "photoId": 636437073,
    "audioId": null,
    "lifeBird": false,
    "stateBird": false
  },
  {
    "id": 19,
    "date": "1/1/2025",
    "name": "Eared Grebe",
    "location": "Keith",
    "lat": 41.213919,
    "lng": -101.665138,
    "photoId": null,
    "audioId": null,
    "lifeBird": false,
    "stateBird": false
  },
  {
    "id": 20,
    "date": "1/1/2025",
    "name": "Pied-billed Grebe",
    "location": "Keith",
    "lat": 41.213919,
    "lng": -101.665138,
    "photoId": null,
    "audioId": 634659413,
    "lifeBird": false,
    "stateBird": false
  },
  {
    "id": 21,
    "date": "1/1/2025",
    "name": "Iceland Gull",
    "location": "Keith",
    "lat": 41.213919,
    "lng": -101.665138,
    "photoId": 632058364,
    "audioId": null,
    "lifeBird": false,
    "stateBird": false
  },
  {
    "id": 22,
    "date": "1/1/2025",
    "name": "Lesser Black-backed Gull",
    "location": "Keith",
    "lat": 41.213919,
    "lng": -101.665138,
    "photoId": 631565638,
    "audioId": null,
    "lifeBird": false,
    "stateBird": false
  },
  {
    "id": 23,
    "date": "1/1/2025",
    "name": "American Herring Gull",
    "location": "Keith",
    "lat": 41.213919,
    "lng": -101.665138,
    "photoId": 631937827,
    "audioId": null,
    "lifeBird": false,
    "stateBird": false
  },
  {
    "id": 24,
    "date": "1/1/2025",
    "name": "Ring-billed Gull",
    "location": "Keith",
    "lat": 41.213919,
    "lng": -101.665138,
    "photoId": 631938179,
    "audioId": 638163471,
    "lifeBird": false,
    "stateBird": false
  },
  {
    "id": 25,
    "date": "1/1/2025",
    "name": "Bonaparte's Gull",
    "location": "Keith",
    "lat": 41.213919,
    "lng": -101.665138,
    "photoId": 636052563,
    "audioId": null,
    "lifeBird": false,
    "stateBird": false
  },
  {
    "id": 26,
    "date": "1/1/2025",
    "name": "American Coot",
    "location": "Keith",
    "lat": 41.213919,
    "lng": -101.665138,
    "photoId": null,
    "audioId": 637315233,
    "lifeBird": false,
    "stateBird": false
  },
  {
    "id": 27,
    "date": "1/1/2025",
    "name": "Eurasian Collared-Dove",
    "location": "Keith",
    "lat": 41.213919,
    "lng": -101.665138,
    "photoId": null,
    "audioId": null,
    "lifeBird": false,
    "stateBird": false
  },
  {
    "id": 28,
    "date": "1/1/2025",
    "name": "Ruddy Duck",
    "location": "Keith",
    "lat": 41.213919,
    "lng": -101.665138,
    "photoId": 634263180,
    "audioId": null,
    "lifeBird": false,
    "stateBird": false
  },
  {
    "id": 29,
    "date": "1/1/2025",
    "name": "Common Merganser",
    "location": "Keith",
    "lat": 41.213919,
    "lng": -101.665138,
    "photoId": 631567174,
    "audioId": null,
    "lifeBird": false,
    "stateBird": false
  },
  {
    "id": 30,
    "date": "1/1/2025",
    "name": "Common Goldeneye",
    "location": "Keith",
    "lat": 41.213919,
    "lng": -101.665138,
    "photoId": 634618906,
    "audioId": null,
    "lifeBird": false,
    "stateBird": false
  },
  {
    "id": 31,
    "date": "1/1/2025",
    "name": "Bufflehead",
    "location": "Keith",
    "lat": 41.213919,
    "lng": -101.665138,
    "photoId": null,
    "audioId": null,
    "lifeBird": false,
    "stateBird": false
  },
  {
    "id": 32,
    "date": "1/1/2025",
    "name": "Long-tailed Duck",
    "location": "Keith",
    "lat": 41.213919,
    "lng": -101.665138,
    "photoId": 628566379,
    "audioId": null,
    "lifeBird": false,
    "stateBird": false
  },
  {
    "id": 33,
    "date": "1/1/2025",
    "name": "Black Scoter",
    "location": "Keith",
    "lat": 41.213919,
    "lng": -101.665138,
    "photoId": 644590584,
    "audioId": null,
    "lifeBird": false,
    "stateBird": false
  },
  {
    "id": 34,
    "date": "1/1/2025",
    "name": "White-winged Scoter",
    "location": "Keith",
    "lat": 41.213919,
    "lng": -101.665138,
    "photoId": 628569689,
    "audioId": null,
    "lifeBird": false,
    "stateBird": false
  },
  {
    "id": 35,
    "date": "1/1/2025",
    "name": "Surf Scoter",
    "location": "Keith",
    "lat": 41.213919,
    "lng": -101.665138,
    "photoId": 643718251,
    "audioId": null,
    "lifeBird": false,
    "stateBird": false
  },
  {
    "id": 36,
    "date": "1/1/2025",
    "name": "Lesser Scaup",
    "location": "Keith",
    "lat": 41.213919,
    "lng": -101.665138,
    "photoId": null,
    "audioId": null,
    "lifeBird": false,
    "stateBird": false
  },
  {
    "id": 37,
    "date": "1/1/2025",
    "name": "Greater Scaup",
    "location": "Keith",
    "lat": 41.213919,
    "lng": -101.665138,
    "photoId": null,
    "audioId": null,
    "lifeBird": false,
    "stateBird": false
  },
  {
    "id": 38,
    "date": "1/1/2025",
    "name": "Redhead",
    "location": "Keith",
    "lat": 41.213919,
    "lng": -101.665138,
    "photoId": null,
    "audioId": null,
    "lifeBird": false,
    "stateBird": false
  },
  {
    "id": 39,
    "date": "1/1/2025",
    "name": "Canvasback",
    "location": "Keith",
    "lat": 41.213919,
    "lng": -101.665138,
    "photoId": null,
    "audioId": null,
    "lifeBird": false,
    "stateBird": false
  },
  {
    "id": 40,
    "date": "1/1/2025",
    "name": "Green-winged Teal",
    "location": "Keith",
    "lat": 41.213919,
    "lng": -101.665138,
    "photoId": null,
    "audioId": null,
    "lifeBird": false,
    "stateBird": false
  },
  {
    "id": 41,
    "date": "1/1/2025",
    "name": "Mallard",
    "location": "Keith",
    "lat": 41.213919,
    "lng": -101.665138,
    "photoId": null,
    "audioId": null,
    "lifeBird": false,
    "stateBird": false
  },
  {
    "id": 42,
    "date": "1/1/2025",
    "name": "American Wigeon",
    "location": "Keith",
    "lat": 41.213919,
    "lng": -101.665138,
    "photoId": null,
    "audioId": null,
    "lifeBird": false,
    "stateBird": false
  },
  {
    "id": 43,
    "date": "1/1/2025",
    "name": "Eurasian Wigeon",
    "location": "Keith",
    "lat": 41.213919,
    "lng": -101.665138,
    "photoId": 628569601,
    "audioId": null,
    "lifeBird": true,
    "stateBird": true
  },
  {
    "id": 44,
    "date": "1/1/2025",
    "name": "Gadwall",
    "location": "Keith",
    "lat": 41.213919,
    "lng": -101.665138,
    "photoId": null,
    "audioId": null,
    "lifeBird": false,
    "stateBird": false
  },
  {
    "id": 45,
    "date": "1/1/2025",
    "name": "Canada Goose",
    "location": "Keith",
    "lat": 41.213919,
    "lng": -101.665138,
    "photoId": null,
    "audioId": null,
    "lifeBird": false,
    "stateBird": false
  },
  {
    "id": 46,
    "date": "1/1/2025",
    "name": "Cackling Goose",
    "location": "Keith",
    "lat": 41.213919,
    "lng": -101.665138,
    "photoId": null,
    "audioId": null,
    "lifeBird": false,
    "stateBird": false
  },
  {
    "id": 47,
    "date": "1/1/2025",
    "name": "American Goldfinch",
    "location": "Keith",
    "lat": 41.213919,
    "lng": -101.665138,
    "photoId": null,
    "audioId": 641250965,
    "lifeBird": false,
    "stateBird": false
  },
  {
    "id": 48,
    "date": "1/1/2025",
    "name": "American Kestrel",
    "location": "Keith",
    "lat": 41.213919,
    "lng": -101.665138,
    "photoId": null,
    "audioId": null,
    "lifeBird": false,
    "stateBird": false
  },
  {
    "id": 49,
    "date": "1/1/2025",
    "name": "California Gull",
    "location": "Keith",
    "lat": 41.213919,
    "lng": -101.665138,
    "photoId": 632158431,
    "audioId": null,
    "lifeBird": false,
    "stateBird": false
  },
  {
    "id": 50,
    "date": "1/1/2025",
    "name": "House Sparrow",
    "location": "Keith",
    "lat": 41.132519,
    "lng": -101.726035,
    "photoId": null,
    "audioId": null,
    "lifeBird": false,
    "stateBird": false
  },
  {
    "id": 51,
    "date": "1/1/2025",
    "name": "Ross's Goose",
    "location": "Keith",
    "lat": 41.132519,
    "lng": -101.726035,
    "photoId": 632215194,
    "audioId": null,
    "lifeBird": false,
    "stateBird": false
  },
  {
    "id": 52,
    "date": "1/1/2025",
    "name": "Snow Goose",
    "location": "Keith",
    "lat": 41.132519,
    "lng": -101.726035,
    "photoId": 631865572,
    "audioId": 631865572,
    "lifeBird": false,
    "stateBird": false
  },
  {
    "id": 53,
    "date": "1/1/2025",
    "name": "Rock Pigeon",
    "location": "Keith",
    "lat": 41.1080594,
    "lng": -101.3815365,
    "photoId": null,
    "audioId": null,
    "lifeBird": false,
    "stateBird": false
  },
  {
    "id": 54,
    "date": "1/1/2025",
    "name": "Western Meadowlark",
    "location": "Keith",
    "lat": 41.1080594,
    "lng": -101.3815365,
    "photoId": null,
    "audioId": 634660987,
    "lifeBird": false,
    "stateBird": false
  },
  {
    "id": 55,
    "date": "1/1/2025",
    "name": "Northern Harrier",
    "location": "Lincoln",
    "lat": 41.080405,
    "lng": -100.783517,
    "photoId": null,
    "audioId": null,
    "lifeBird": false,
    "stateBird": false
  },
  {
    "id": 56,
    "date": "1/1/2025",
    "name": "American Tree Sparrow",
    "location": "Lincoln",
    "lat": 41.080405,
    "lng": -100.783517,
    "photoId": 629294221,
    "audioId": null,
    "lifeBird": false,
    "stateBird": false
  },
  {
    "id": 57,
    "date": "1/1/2025",
    "name": "House Finch",
    "location": "Lincoln",
    "lat": 41.080405,
    "lng": -100.783517,
    "photoId": null,
    "audioId": null,
    "lifeBird": false,
    "stateBird": false
  },
  {
    "id": 58,
    "date": "1/1/2025",
    "name": "Red-breasted Nuthatch",
    "location": "Lincoln",
    "lat": 41.080405,
    "lng": -100.783517,
    "photoId": null,
    "audioId": null,
    "lifeBird": false,
    "stateBird": false
  },
  {
    "id": 59,
    "date": "1/1/2025",
    "name": "Couch's Kingbird",
    "location": "Lincoln",
    "lat": 41.080405,
    "lng": -100.783517,
    "photoId": 628571041,
    "audioId": null,
    "lifeBird": false,
    "stateBird": false
  },
  {
    "id": 60,
    "date": "1/1/2025",
    "name": "Downy Woodpecker",
    "location": "Lincoln",
    "lat": 41.1078169,
    "lng": -100.7622632,
    "photoId": null,
    "audioId": 634661393,
    "lifeBird": false,
    "stateBird": false
  },
  {
    "id": 61,
    "date": "1/1/2025",
    "name": "Great-tailed Grackle",
    "location": "Lincoln",
    "lat": 41.124757,
    "lng": -100.723373,
    "photoId": null,
    "audioId": null,
    "lifeBird": false,
    "stateBird": false
  },
  {
    "id": 62,
    "date": "1/1/2025",
    "name": "Barrow's Goldeneye",
    "location": "Lincoln",
    "lat": 41.124757,
    "lng": -100.723373,
    "photoId": 644590413,
    "audioId": null,
    "lifeBird": false,
    "stateBird": false
  },
  {
    "id": 63,
    "date": "1/1/2025",
    "name": "Ring-necked Duck",
    "location": "Lincoln",
    "lat": 41.124757,
    "lng": -100.723373,
    "photoId": null,
    "audioId": null,
    "lifeBird": false,
    "stateBird": false
  },
  {
    "id": 64,
    "date": "1/1/2025",
    "name": "Northern Pintail",
    "location": "Lincoln",
    "lat": 41.124757,
    "lng": -100.723373,
    "photoId": null,
    "audioId": null,
    "lifeBird": false,
    "stateBird": false
  },
  {
    "id": 65,
    "date": "1/1/2025",
    "name": "Northern Shoveler",
    "location": "Lincoln",
    "lat": 41.124757,
    "lng": -100.723373,
    "photoId": null,
    "audioId": null,
    "lifeBird": false,
    "stateBird": false
  },
  {
    "id": 66,
    "date": "1/1/2025",
    "name": "Greater White-fronted Goose",
    "location": "Keith",
    "lat": 41.207104,
    "lng": -101.9665566,
    "photoId": null,
    "audioId": null,
    "lifeBird": false,
    "stateBird": false
  },
  {
    "id": 67,
    "date": "1/1/2025",
    "name": "Horned Lark",
    "location": "Garden",
    "lat": 41.3575512,
    "lng": -102.2099205,
    "photoId": 631057804,
    "audioId": null,
    "lifeBird": false,
    "stateBird": false
  },
  {
    "id": 68,
    "date": "1/1/2025",
    "name": "Red-winged Blackbird",
    "location": "Garden",
    "lat": 41.4224106,
    "lng": -102.3916806,
    "photoId": null,
    "audioId": null,
    "lifeBird": false,
    "stateBird": false
  },
  {
    "id": 69,
    "date": "1/1/2025",
    "name": "Ferruginous Hawk",
    "location": "Garden",
    "lat": 41.4224106,
    "lng": -102.3916806,
    "photoId": 628593589,
    "audioId": null,
    "lifeBird": false,
    "stateBird": false
  },
  {
    "id": 70,
    "date": "1/1/2025",
    "name": "Sharp-shinned Hawk",
    "location": "Garden",
    "lat": 41.5001562,
    "lng": -102.6210525,
    "photoId": null,
    "audioId": 643733653,
    "lifeBird": false,
    "stateBird": false
  },
  {
    "id": 71,
    "date": "1/1/2025",
    "name": "Northern Shrike",
    "location": "Morrill",
    "lat": 41.5168843,
    "lng": -102.6538372,
    "photoId": null,
    "audioId": null,
    "lifeBird": false,
    "stateBird": false
  },
  {
    "id": 72,
    "date": "1/1/2025",
    "name": "Prairie Falcon",
    "location": "Scotts Bluff",
    "lat": 41.7333954,
    "lng": -103.386912,
    "photoId": null,
    "audioId": null,
    "lifeBird": false,
    "stateBird": false
  },
  {
    "id": 73,
    "date": "1/1/2025",
    "name": "Ring-necked Pheasant",
    "location": "Scotts Bluff",
    "lat": 41.8143498,
    "lng": -103.6114285,
    "photoId": 633620480,
    "audioId": null,
    "lifeBird": false,
    "stateBird": false
  },
  {
    "id": 74,
    "date": "1/1/2025",
    "name": "Cooper's Hawk",
    "location": "Scotts Bluff",
    "lat": 41.816706,
    "lng": -103.68613,
    "photoId": 639810583,
    "audioId": null,
    "lifeBird": false,
    "stateBird": false
  },
  {
    "id": 75,
    "date": "1/1/2025",
    "name": "White-crowned Sparrow",
    "location": "Scotts Bluff",
    "lat": 41.708053,
    "lng": -103.678265,
    "photoId": 644230673,
    "audioId": null,
    "lifeBird": false,
    "stateBird": false
  },
  {
    "id": 76,
    "date": "1/1/2025",
    "name": "Black-capped Chickadee",
    "location": "Scotts Bluff",
    "lat": 41.708053,
    "lng": -103.678265,
    "photoId": null,
    "audioId": 628451989,
    "lifeBird": false,
    "stateBird": false
  },
  {
    "id": 77,
    "date": "1/1/2025",
    "name": "Great Horned Owl",
    "location": "Scotts Bluff",
    "lat": 41.8282083,
    "lng": -103.7076194,
    "photoId": 634618826,
    "audioId": null,
    "lifeBird": false,
    "stateBird": false
  },
  {
    "id": 78,
    "date": "1/2/2025",
    "name": "Red Crossbill",
    "location": "Sioux",
    "lat": 42.722032,
    "lng": -103.81948,
    "photoId": 628593375,
    "audioId": 642254071,
    "lifeBird": false,
    "stateBird": false
  },
  {
    "id": 79,
    "date": "1/2/2025",
    "name": "Black-billed Magpie",
    "location": "Sioux",
    "lat": 42.722032,
    "lng": -103.81948,
    "photoId": 628594336,
    "audioId": 628451972,
    "lifeBird": false,
    "stateBird": false
  },
  {
    "id": 80,
    "date": "1/2/2025",
    "name": "Belted Kingfisher",
    "location": "Sioux",
    "lat": 42.733816,
    "lng": -103.84009,
    "photoId": null,
    "audioId": 643298053,
    "lifeBird": false,
    "stateBird": false
  },
  {
    "id": 81,
    "date": "1/2/2025",
    "name": "Lapland Longspur",
    "location": "Sioux",
    "lat": 42.6980453,
    "lng": -103.8763378,
    "photoId": 628593452,
    "audioId": null,
    "lifeBird": false,
    "stateBird": false
  },
  {
    "id": 82,
    "date": "1/2/2025",
    "name": "Rough-legged Hawk",
    "location": "Sioux",
    "lat": 42.6832934,
    "lng": -103.9548018,
    "photoId": 628593469,
    "audioId": null,
    "lifeBird": false,
    "stateBird": false
  },
  {
    "id": 83,
    "date": "1/2/2025",
    "name": "Golden Eagle",
    "location": "Sioux",
    "lat": 42.733816,
    "lng": -103.84009,
    "photoId": 628593371,
    "audioId": null,
    "lifeBird": false,
    "stateBird": false
  },
  {
    "id": 84,
    "date": "1/3/2025",
    "name": "Pine Siskin",
    "location": "Morrill",
    "lat": 41.4442073,
    "lng": -103.0456539,
    "photoId": null,
    "audioId": null,
    "lifeBird": false,
    "stateBird": false
  },
  {
    "id": 85,
    "date": "1/2/2025",
    "name": "Sharp-tailed Grouse",
    "location": "Sioux",
    "lat": 42.7481063,
    "lng": -103.8134464,
    "photoId": null,
    "audioId": null,
    "lifeBird": false,
    "stateBird": false
  },
  {
    "id": 86,
    "date": "1/2/2025",
    "name": "Gray-crowned Rosy-Finch",
    "location": "Sioux",
    "lat": 42.7481063,
    "lng": -103.8134464,
    "photoId": 628592840,
    "audioId": null,
    "lifeBird": true,
    "stateBird": true
  },
  {
    "id": 87,
    "date": "1/2/2025",
    "name": "Merlin",
    "location": "Sioux",
    "lat": 42.62990698,
    "lng": -104.0527093,
    "photoId": 642059416,
    "audioId": null,
    "lifeBird": false,
    "stateBird": false
  },
  {
    "id": 88,
    "date": "1/2/2025",
    "name": "Common Raven",
    "location": "Sioux",
    "lat": 42.7481063,
    "lng": -103.8134464,
    "photoId": 637615877,
    "audioId": 637615969,
    "lifeBird": false,
    "stateBird": false
  },
  {
    "id": 89,
    "date": "1/3/2025",
    "name": "Pinyon Jay",
    "location": "Morrill",
    "lat": 41.4442073,
    "lng": -103.0456539,
    "photoId": 628594339,
    "audioId": 628595639,
    "lifeBird": true,
    "stateBird": true
  },
  {
    "id": 90,
    "date": "1/3/2025",
    "name": "Rock Wren",
    "location": "Scotts Bluff",
    "lat": 41.93277053,
    "lng": -103.4919188,
    "photoId": 628572390,
    "audioId": 637740614,
    "lifeBird": false,
    "stateBird": false
  },
  {
    "id": 91,
    "date": "1/3/2025",
    "name": "Townsend's Solitaire",
    "location": "Scotts Bluff",
    "lat": 41.698976,
    "lng": -103.590298,
    "photoId": 628594361,
    "audioId": 642254489,
    "lifeBird": false,
    "stateBird": false
  },
  {
    "id": 92,
    "date": "1/3/2025",
    "name": "Pygmy Nuthatch",
    "location": "Scotts Bluff",
    "lat": 41.708053,
    "lng": -103.678265,
    "photoId": 628594378,
    "audioId": 628595747,
    "lifeBird": false,
    "stateBird": false
  },
  {
    "id": 93,
    "date": "1/5/2025",
    "name": "Snow Bunting",
    "location": "Platte",
    "lat": 41.48763453,
    "lng": -97.3592826,
    "photoId": 628619712,
    "audioId": null,
    "lifeBird": false,
    "stateBird": false
  },
  {
    "id": 94,
    "date": "1/6/2025",
    "name": "White-throated Sparrow",
    "location": "Lancaster",
    "lat": 40.743498,
    "lng": -96.714382,
    "photoId": 636437636,
    "audioId": null,
    "lifeBird": false,
    "stateBird": false
  },
  {
    "id": 95,
    "date": "1/6/2025",
    "name": "Carolina Wren",
    "location": "Lancaster",
    "lat": 40.743498,
    "lng": -96.714382,
    "photoId": 641652967,
    "audioId": null,
    "lifeBird": false,
    "stateBird": false
  },
  {
    "id": 96,
    "date": "1/6/2025",
    "name": "Brown Creeper",
    "location": "Lancaster",
    "lat": 40.743498,
    "lng": -96.714382,
    "photoId": null,
    "audioId": 630591547,
    "lifeBird": false,
    "stateBird": false
  },
  {
    "id": 97,
    "date": "1/6/2025",
    "name": "Golden-crowned Kinglet",
    "location": "Lancaster",
    "lat": 40.743498,
    "lng": -96.714382,
    "photoId": 632747404,
    "audioId": null,
    "lifeBird": false,
    "stateBird": false
  },
  {
    "id": 98,
    "date": "1/6/2025",
    "name": "Barred Owl",
    "location": "Lancaster",
    "lat": 40.743498,
    "lng": -96.714382,
    "photoId": 634668357,
    "audioId": null,
    "lifeBird": false,
    "stateBird": false
  },
  {
    "id": 99,
    "date": "1/6/2025",
    "name": "Mourning Dove",
    "location": "Lancaster",
    "lat": 40.743498,
    "lng": -96.714382,
    "photoId": null,
    "audioId": 637315388,
    "lifeBird": false,
    "stateBird": false
  },
  {
    "id": 100,
    "date": "1/7/2025",
    "name": "Yellow-rumped Warbler",
    "location": "Lancaster",
    "lat": 40.858048,
    "lng": -96.890466,
    "photoId": null,
    "audioId": null,
    "lifeBird": false,
    "stateBird": false
  },
  {
    "id": 101,
    "date": "1/7/2025",
    "name": "Eastern Bluebird",
    "location": "Lancaster",
    "lat": 40.858048,
    "lng": -96.890466,
    "photoId": 641876952,
    "audioId": null,
    "lifeBird": false,
    "stateBird": false
  },
  {
    "id": 102,
    "date": "1/7/2025",
    "name": "Peregrine Falcon",
    "location": "Lancaster",
    "lat": 40.8077899,
    "lng": -96.6996646,
    "photoId": 634619112,
    "audioId": null,
    "lifeBird": false,
    "stateBird": false
  },
  {
    "id": 103,
    "date": "1/9/2025",
    "name": "Trumpeter Swan",
    "location": "Sarpy",
    "lat": 41.0742049,
    "lng": -96.3042319,
    "photoId": 630460678,
    "audioId": 637744014,
    "lifeBird": false,
    "stateBird": false
  },
  {
    "id": 104,
    "date": "1/9/2025",
    "name": "Harris's Sparrow",
    "location": "Cass",
    "lat": 40.987691,
    "lng": -96.219548,
    "photoId": null,
    "audioId": null,
    "lifeBird": false,
    "stateBird": false
  },
  {
    "id": 105,
    "date": "1/9/2025",
    "name": "Tufted Titmouse",
    "location": "Cass",
    "lat": 40.987691,
    "lng": -96.219548,
    "photoId": null,
    "audioId": null,
    "lifeBird": false,
    "stateBird": false
  },
  {
    "id": 106,
    "date": "1/9/2025",
    "name": "Fox Sparrow",
    "location": "Sarpy",
    "lat": 41.177508,
    "lng": -95.893867,
    "photoId": 643453118,
    "audioId": 637740132,
    "lifeBird": false,
    "stateBird": false
  },
  {
    "id": 107,
    "date": "1/9/2025",
    "name": "Tundra Swan",
    "location": "Douglas",
    "lat": 41.3449893,
    "lng": -96.3307727,
    "photoId": 629825717,
    "audioId": null,
    "lifeBird": false,
    "stateBird": false
  },
  {
    "id": 108,
    "date": "1/13/2025",
    "name": "Purple Finch",
    "location": "Lancaster",
    "lat": 40.858048,
    "lng": -96.890466,
    "photoId": 632215372,
    "audioId": 630011975,
    "lifeBird": false,
    "stateBird": false
  },
  {
    "id": 109,
    "date": "1/13/2025",
    "name": "Hermit Thrush",
    "location": "Lancaster",
    "lat": 40.958502,
    "lng": -96.877168,
    "photoId": 641530344,
    "audioId": null,
    "lifeBird": false,
    "stateBird": false
  },
  {
    "id": 110,
    "date": "1/13/2025",
    "name": "Red-shouldered Hawk",
    "location": "Seward",
    "lat": 40.917903,
    "lng": -97.081413,
    "photoId": 641622254,
    "audioId": null,
    "lifeBird": false,
    "stateBird": false
  },
  {
    "id": 111,
    "date": "1/9/2025",
    "name": "Red-headed Woodpecker",
    "location": "Sarpy",
    "lat": 41.181398,
    "lng": -95.915141,
    "photoId": null,
    "audioId": null,
    "lifeBird": false,
    "stateBird": false
  },
  {
    "id": 112,
    "date": "1/26/2025",
    "name": "Pileated Woodpecker",
    "location": "Sarpy",
    "lat": 41.177508,
    "lng": -95.893867,
    "photoId": null,
    "audioId": 633676738,
    "lifeBird": false,
    "stateBird": false
  },
  {
    "id": 113,
    "date": "1/27/2025",
    "name": "Yellow-bellied Sapsucker",
    "location": "Lancaster",
    "lat": 40.969985,
    "lng": -96.890955,
    "photoId": 631181507,
    "audioId": null,
    "lifeBird": false,
    "stateBird": false
  },
  {
    "id": 114,
    "date": "1/27/2025",
    "name": "Northern Bobwhite",
    "location": "Lancaster",
    "lat": 40.969985,
    "lng": -96.890955,
    "photoId": null,
    "audioId": 637754631,
    "lifeBird": false,
    "stateBird": false
  },
  {
    "id": 115,
    "date": "1/28/2025",
    "name": "Hooded Merganser",
    "location": "Cass",
    "lat": 41.0490294,
    "lng": -95.9183682,
    "photoId": null,
    "audioId": null,
    "lifeBird": false,
    "stateBird": false
  },
  {
    "id": 116,
    "date": "1/30/2025",
    "name": "Sandhill Crane",
    "location": "Lancaster",
    "lat": 40.836894,
    "lng": -96.661442,
    "photoId": 631864503,
    "audioId": null,
    "lifeBird": false,
    "stateBird": false
  },
  {
    "id": 117,
    "date": "1/30/2025",
    "name": "Brewer's Blackbird",
    "location": "Lancaster",
    "lat": 41.045141,
    "lng": -96.621663,
    "photoId": 630458766,
    "audioId": 630508127,
    "lifeBird": false,
    "stateBird": false
  },
  {
    "id": 118,
    "date": "2/7/2025",
    "name": "Mountain Bluebird",
    "location": "Lincoln",
    "lat": 41.0440252,
    "lng": -100.6593985,
    "photoId": 630458626,
    "audioId": null,
    "lifeBird": false,
    "stateBird": false
  },
  {
    "id": 119,
    "date": "2/7/2025",
    "name": "Brown-headed Cowbird",
    "location": "Lincoln",
    "lat": 41.213481,
    "lng": -100.873404,
    "photoId": null,
    "audioId": 637743937,
    "lifeBird": false,
    "stateBird": false
  },
  {
    "id": 120,
    "date": "2/7/2025",
    "name": "Greater Prairie-Chicken",
    "location": "Lincoln",
    "lat": 41.213481,
    "lng": -100.873404,
    "photoId": null,
    "audioId": 637614956,
    "lifeBird": false,
    "stateBird": false
  },
  {
    "id": 121,
    "date": "2/7/2025",
    "name": "Short-eared Owl",
    "location": "Lincoln",
    "lat": 41.213481,
    "lng": -100.873404,
    "photoId": null,
    "audioId": null,
    "lifeBird": false,
    "stateBird": false
  },
  {
    "id": 122,
    "date": "2/8/2025",
    "name": "Glaucous Gull",
    "location": "Keith",
    "lat": 41.213919,
    "lng": -101.665138,
    "photoId": 630537712,
    "audioId": null,
    "lifeBird": false,
    "stateBird": false
  },
  {
    "id": 123,
    "date": "2/8/2025",
    "name": "Red-breasted Merganser",
    "location": "Keith",
    "lat": 41.213919,
    "lng": -101.665138,
    "photoId": null,
    "audioId": null,
    "lifeBird": false,
    "stateBird": false
  },
  {
    "id": 124,
    "date": "2/8/2025",
    "name": "American White Pelican",
    "location": "Keith",
    "lat": 41.213919,
    "lng": -101.665138,
    "photoId": 641547592,
    "audioId": null,
    "lifeBird": false,
    "stateBird": false
  },
  {
    "id": 125,
    "date": "2/8/2025",
    "name": "Double-crested Cormorant",
    "location": "Lincoln",
    "lat": 41.097618,
    "lng": -101.107797,
    "photoId": null,
    "audioId": null,
    "lifeBird": false,
    "stateBird": false
  },
  {
    "id": 126,
    "date": "2/8/2025",
    "name": "Wilson's Snipe",
    "location": "Lincoln",
    "lat": 41.097618,
    "lng": -101.107797,
    "photoId": null,
    "audioId": 637645522,
    "lifeBird": false,
    "stateBird": false
  },
  {
    "id": 127,
    "date": "2/8/2025",
    "name": "Virginia Rail",
    "location": "Lincoln",
    "lat": 41.140272,
    "lng": -100.72406,
    "photoId": null,
    "audioId": 637651792,
    "lifeBird": false,
    "stateBird": false
  },
  {
    "id": 128,
    "date": "2/8/2025",
    "name": "Short-billed Gull",
    "location": "Keith",
    "lat": 41.140272,
    "lng": -100.72406,
    "photoId": 630451210,
    "audioId": null,
    "lifeBird": false,
    "stateBird": false
  },
  {
    "id": 129,
    "date": "2/10/2025",
    "name": "Long-eared Owl",
    "location": "Lancaster",
    "lat": 41.213919,
    "lng": -101.665138,
    "photoId": null,
    "audioId": null,
    "lifeBird": true,
    "stateBird": true
  },
  {
    "id": 130,
    "date": "2/25/2025",
    "name": "Wild Turkey",
    "location": "Lancaster",
    "lat": 40.629646,
    "lng": -96.78731,
    "photoId": null,
    "audioId": null,
    "lifeBird": false,
    "stateBird": false
  },
  {
    "id": 131,
    "date": "2/25/2025",
    "name": "Rusty Blackbird",
    "location": "Lancaster",
    "lat": 40.599676,
    "lng": -96.645289,
    "photoId": null,
    "audioId": null,
    "lifeBird": false,
    "stateBird": false
  },
  {
    "id": 132,
    "date": "3/1/2025",
    "name": "Pacific Loon",
    "location": "Lincoln",
    "lat": 41.097618,
    "lng": -101.107797,
    "photoId": 631530734,
    "audioId": null,
    "lifeBird": false,
    "stateBird": true
  },
  {
    "id": 133,
    "date": "3/2/2025",
    "name": "American Pipit",
    "location": "Lincoln",
    "lat": 41.097618,
    "lng": -101.107797,
    "photoId": 633304507,
    "audioId": 644262771,
    "lifeBird": false,
    "stateBird": false
  },
  {
    "id": 134,
    "date": "3/2/2025",
    "name": "Western Grebe",
    "location": "Lincoln",
    "lat": 41.097618,
    "lng": -101.107797,
    "photoId": 641530434,
    "audioId": 638163476,
    "lifeBird": false,
    "stateBird": false
  },
  {
    "id": 135,
    "date": "3/6/2025",
    "name": "Common Grackle",
    "location": "Lancaster",
    "lat": 40.77984,
    "lng": -96.635971,
    "photoId": null,
    "audioId": null,
    "lifeBird": false,
    "stateBird": false
  },
  {
    "id": 136,
    "date": "3/6/2025",
    "name": "Killdeer",
    "location": "Lancaster",
    "lat": 40.7657865,
    "lng": -96.8507481,
    "photoId": 631938184,
    "audioId": null,
    "lifeBird": false,
    "stateBird": false
  },
  {
    "id": 137,
    "date": "3/8/2025",
    "name": "Eastern Phoebe",
    "location": "Hall",
    "lat": 40.7726769,
    "lng": -98.4938049,
    "photoId": 641878447,
    "audioId": null,
    "lifeBird": false,
    "stateBird": false
  },
  {
    "id": 138,
    "date": "3/9/2025",
    "name": "Yellow-headed Blackbird",
    "location": "Hall",
    "lat": 40.768765,
    "lng": -98.4164785,
    "photoId": null,
    "audioId": 637625603,
    "lifeBird": false,
    "stateBird": false
  },
  {
    "id": 139,
    "date": "3/9/2025",
    "name": "Eastern Meadowlark",
    "location": "Seward",
    "lat": 40.9157957,
    "lng": -97.3427897,
    "photoId": null,
    "audioId": null,
    "lifeBird": false,
    "stateBird": false
  },
  {
    "id": 140,
    "date": "3/10/2025",
    "name": "American Woodcock",
    "location": "Lancaster",
    "lat": 40.776916,
    "lng": -96.777985,
    "photoId": null,
    "audioId": 631939103,
    "lifeBird": false,
    "stateBird": false
  },
  {
    "id": 141,
    "date": "3/12/2025",
    "name": "Spotted Towhee",
    "location": "Lancaster",
    "lat": 40.743498,
    "lng": -96.714382,
    "photoId": 635302664,
    "audioId": 637741183,
    "lifeBird": false,
    "stateBird": false
  },
  {
    "id": 142,
    "date": "3/13/2025",
    "name": "Whooping Crane",
    "location": "Hall",
    "lat": 40.7172206,
    "lng": -98.4629939,
    "photoId": 634054651,
    "audioId": null,
    "lifeBird": false,
    "stateBird": false
  },
  {
    "id": 143,
    "date": "3/13/2025",
    "name": "Wood Duck",
    "location": "Hall",
    "lat": 40.7726769,
    "lng": -98.4938049,
    "photoId": 633674874,
    "audioId": 637743755,
    "lifeBird": false,
    "stateBird": false
  },
  {
    "id": 144,
    "date": "3/14/2025",
    "name": "Savannah Sparrow",
    "location": "Lancaster",
    "lat": 40.881327,
    "lng": -96.657746,
    "photoId": null,
    "audioId": 637743977,
    "lifeBird": false,
    "stateBird": false
  },
  {
    "id": 145,
    "date": "3/15/2025",
    "name": "Blue-winged Teal",
    "location": "Lancaster",
    "lat": 40.881327,
    "lng": -96.657746,
    "photoId": null,
    "audioId": null,
    "lifeBird": false,
    "stateBird": false
  },
  {
    "id": 146,
    "date": "3/15/2025",
    "name": "Horned Grebe",
    "location": "Lancaster",
    "lat": 40.824838,
    "lng": -96.7415068,
    "photoId": null,
    "audioId": null,
    "lifeBird": false,
    "stateBird": false
  },
  {
    "id": 147,
    "date": "3/15/2025",
    "name": "Loggerhead Shrike",
    "location": "Lancaster",
    "lat": 40.858048,
    "lng": -96.890466,
    "photoId": 634618832,
    "audioId": null,
    "lifeBird": false,
    "stateBird": false
  },
  {
    "id": 148,
    "date": "3/15/2025",
    "name": "Turkey Vulture",
    "location": "Lancaster",
    "lat": 40.765901,
    "lng": -96.675701,
    "photoId": null,
    "audioId": null,
    "lifeBird": false,
    "stateBird": false
  },
  {
    "id": 149,
    "date": "3/16/2025",
    "name": "Franklin's Gull",
    "location": "Lancaster",
    "lat": 40.881327,
    "lng": -96.657746,
    "photoId": 639368551,
    "audioId": null,
    "lifeBird": false,
    "stateBird": false
  },
  {
    "id": 150,
    "date": "3/17/2025",
    "name": "Common Loon",
    "location": "Lancaster",
    "lat": 40.77984,
    "lng": -96.635971,
    "photoId": 632262389,
    "audioId": null,
    "lifeBird": false,
    "stateBird": false
  },
  {
    "id": 151,
    "date": "3/18/2025",
    "name": "Red-necked Grebe",
    "location": "Lancaster",
    "lat": 40.824838,
    "lng": -96.7415068,
    "photoId": 632320029,
    "audioId": null,
    "lifeBird": false,
    "stateBird": false
  },
  {
    "id": 152,
    "date": "3/20/2025",
    "name": "Baird's Sandpiper",
    "location": "Lancaster",
    "lat": 40.881327,
    "lng": -96.657746,
    "photoId": 644230684,
    "audioId": 639794695,
    "lifeBird": false,
    "stateBird": false
  },
  {
    "id": 153,
    "date": "3/22/2025",
    "name": "Field Sparrow",
    "location": "Pawnee",
    "lat": 40.03087124,
    "lng": -96.3191776,
    "photoId": 638181227,
    "audioId": 635054608,
    "lifeBird": false,
    "stateBird": false
  },
  {
    "id": 154,
    "date": "3/22/2025",
    "name": "Brown Thrasher",
    "location": "Pawnee",
    "lat": 40.03087124,
    "lng": -96.3191776,
    "photoId": null,
    "audioId": null,
    "lifeBird": false,
    "stateBird": false
  },
  {
    "id": 155,
    "date": "3/22/2025",
    "name": "Tree Swallow",
    "location": "Pawnee",
    "lat": 40.1671126,
    "lng": -96.302982,
    "photoId": null,
    "audioId": 634670899,
    "lifeBird": false,
    "stateBird": false
  },
  {
    "id": 156,
    "date": "3/22/2025",
    "name": "Greater Yellowlegs",
    "location": "Pawnee",
    "lat": 40.1671126,
    "lng": -96.302982,
    "photoId": 633236116,
    "audioId": null,
    "lifeBird": false,
    "stateBird": false
  },
  {
    "id": 157,
    "date": "3/22/2025",
    "name": "Smith's Longspur",
    "location": "Nemaha",
    "lat": 40.5212454,
    "lng": -96.0075045,
    "photoId": 632498819,
    "audioId": null,
    "lifeBird": true,
    "stateBird": true
  },
  {
    "id": 158,
    "date": "3/23/2025",
    "name": "Long-billed Dowitcher",
    "location": "Lancaster",
    "lat": 40.6040926,
    "lng": -96.8558764,
    "photoId": null,
    "audioId": 634659617,
    "lifeBird": false,
    "stateBird": false
  },
  {
    "id": 159,
    "date": "3/24/2025",
    "name": "Common Crane",
    "location": "Keith",
    "lat": 41.306903,
    "lng": -102.037603,
    "photoId": 632650417,
    "audioId": null,
    "lifeBird": true,
    "stateBird": true
  },
  {
    "id": 160,
    "date": "3/26/2025",
    "name": "Pectoral Sandpiper",
    "location": "Lancaster",
    "lat": 40.5793461,
    "lng": -96.8449974,
    "photoId": null,
    "audioId": null,
    "lifeBird": false,
    "stateBird": false
  },
  {
    "id": 161,
    "date": "3/28/2025",
    "name": "Barn Swallow",
    "location": "Lancaster",
    "lat": 40.77984,
    "lng": -96.635971,
    "photoId": null,
    "audioId": 634670903,
    "lifeBird": false,
    "stateBird": false
  },
  {
    "id": 162,
    "date": "3/28/2025",
    "name": "Purple Martin",
    "location": "Lancaster",
    "lat": 40.776916,
    "lng": -96.777985,
    "photoId": null,
    "audioId": null,
    "lifeBird": false,
    "stateBird": false
  },
  {
    "id": 163,
    "date": "3/31/2025",
    "name": "Lesser Yellowlegs",
    "location": "Lancaster",
    "lat": 40.729146,
    "lng": -96.789615,
    "photoId": null,
    "audioId": 637743874,
    "lifeBird": false,
    "stateBird": false
  },
  {
    "id": 164,
    "date": "3/31/2025",
    "name": "Marbled Godwit",
    "location": "Lancaster",
    "lat": 40.729146,
    "lng": -96.789615,
    "photoId": 639811337,
    "audioId": null,
    "lifeBird": false,
    "stateBird": false
  },
  {
    "id": 165,
    "date": "3/31/2025",
    "name": "American Avocet",
    "location": "Lancaster",
    "lat": 40.729146,
    "lng": -96.789615,
    "photoId": 633728594,
    "audioId": null,
    "lifeBird": false,
    "stateBird": false
  },
  {
    "id": 166,
    "date": "4/1/2025",
    "name": "Vesper Sparrow",
    "location": "Lancaster",
    "lat": 40.881327,
    "lng": -96.657746,
    "photoId": null,
    "audioId": null,
    "lifeBird": false,
    "stateBird": false
  },
  {
    "id": 167,
    "date": "4/4/2025",
    "name": "Lincoln's Sparrow",
    "location": "Lancaster",
    "lat": 40.729146,
    "lng": -96.789615,
    "photoId": 643514709,
    "audioId": null,
    "lifeBird": false,
    "stateBird": false
  },
  {
    "id": 168,
    "date": "4/4/2025",
    "name": "Chipping Sparrow",
    "location": "Lancaster",
    "lat": 40.6931672,
    "lng": -96.8533451,
    "photoId": 635302662,
    "audioId": 635054590,
    "lifeBird": false,
    "stateBird": false
  },
  {
    "id": 169,
    "date": "4/5/2025",
    "name": "Swamp Sparrow",
    "location": "Sarpy",
    "lat": 41.177508,
    "lng": -95.893867,
    "photoId": null,
    "audioId": null,
    "lifeBird": false,
    "stateBird": false
  },
  {
    "id": 170,
    "date": "4/5/2025",
    "name": "Great Egret",
    "location": "Douglas",
    "lat": 41.3653533,
    "lng": -96.0558181,
    "photoId": null,
    "audioId": null,
    "lifeBird": false,
    "stateBird": false
  },
  {
    "id": 171,
    "date": "4/9/2025",
    "name": "Hudsonian Godwit",
    "location": "Lancaster",
    "lat": 40.5793461,
    "lng": -96.8449974,
    "photoId": 636052416,
    "audioId": null,
    "lifeBird": false,
    "stateBird": false
  },
  {
    "id": 172,
    "date": "4/9/2025",
    "name": "Semipalmated Sandpiper",
    "location": "Lancaster",
    "lat": 40.729146,
    "lng": -96.789615,
    "photoId": null,
    "audioId": null,
    "lifeBird": false,
    "stateBird": false
  },
  {
    "id": 173,
    "date": "4/9/2025",
    "name": "Eastern Towhee",
    "location": "Lancaster",
    "lat": 40.743498,
    "lng": -96.714382,
    "photoId": null,
    "audioId": null,
    "lifeBird": false,
    "stateBird": false
  },
  {
    "id": 174,
    "date": "4/10/2025",
    "name": "Northern Rough-winged Swallow",
    "location": "Lancaster",
    "lat": 40.9114045,
    "lng": -96.6861463,
    "photoId": null,
    "audioId": null,
    "lifeBird": false,
    "stateBird": false
  },
  {
    "id": 175,
    "date": "4/10/2025",
    "name": "Grasshopper Sparrow",
    "location": "Lancaster",
    "lat": 40.881327,
    "lng": -96.657746,
    "photoId": null,
    "audioId": 637651275,
    "lifeBird": false,
    "stateBird": false
  },
  {
    "id": 176,
    "date": "4/11/2025",
    "name": "Least Sandpiper",
    "location": "Lancaster",
    "lat": 40.729146,
    "lng": -96.789615,
    "photoId": null,
    "audioId": null,
    "lifeBird": false,
    "stateBird": false
  },
  {
    "id": 177,
    "date": "4/11/2025",
    "name": "Dunlin",
    "location": "Lancaster",
    "lat": 40.729146,
    "lng": -96.789615,
    "photoId": null,
    "audioId": null,
    "lifeBird": false,
    "stateBird": false
  },
  {
    "id": 178,
    "date": "4/11/2025",
    "name": "American Golden-Plover",
    "location": "Platte",
    "lat": 41.48763453,
    "lng": -97.3592826,
    "photoId": 635303233,
    "audioId": 637742125,
    "lifeBird": false,
    "stateBird": false
  },
  {
    "id": 179,
    "date": "4/12/2025",
    "name": "Gray Partridge",
    "location": "Cedar",
    "lat": 42.468063,
    "lng": -97.364998,
    "photoId": null,
    "audioId": null,
    "lifeBird": true,
    "stateBird": true
  },
  {
    "id": 180,
    "date": "4/13/2025",
    "name": "Yellow-throated Warbler",
    "location": "Sarpy",
    "lat": 41.177508,
    "lng": -95.893867,
    "photoId": null,
    "audioId": 633675465,
    "lifeBird": false,
    "stateBird": false
  },
  {
    "id": 181,
    "date": "4/13/2025",
    "name": "Northern Parula",
    "location": "Sarpy",
    "lat": 41.177508,
    "lng": -95.893867,
    "photoId": 635033935,
    "audioId": 633675535,
    "lifeBird": false,
    "stateBird": false
  },
  {
    "id": 182,
    "date": "4/13/2025",
    "name": "Osprey",
    "location": "Cass",
    "lat": 41.0490294,
    "lng": -95.9183682,
    "photoId": 633674892,
    "audioId": null,
    "lifeBird": false,
    "stateBird": false
  },
  {
    "id": 183,
    "date": "4/13/2025",
    "name": "Louisiana Waterthrush",
    "location": "Cass",
    "lat": 40.987691,
    "lng": -96.219548,
    "photoId": 633685143,
    "audioId": 636053093,
    "lifeBird": false,
    "stateBird": false
  },
  {
    "id": 184,
    "date": "4/14/2025",
    "name": "Northern House Wren",
    "location": "Lancaster",
    "lat": 40.881327,
    "lng": -96.657746,
    "photoId": 636052518,
    "audioId": 637743678,
    "lifeBird": false,
    "stateBird": false
  },
  {
    "id": 185,
    "date": "4/14/2025",
    "name": "Black-necked Stilt",
    "location": "Lancaster",
    "lat": 40.881327,
    "lng": -96.657746,
    "photoId": 633728595,
    "audioId": 637624955,
    "lifeBird": false,
    "stateBird": false
  },
  {
    "id": 186,
    "date": "4/15/2025",
    "name": "Western Cattle-Egret",
    "location": "Lancaster",
    "lat": 40.729146,
    "lng": -96.789615,
    "photoId": 633790621,
    "audioId": null,
    "lifeBird": false,
    "stateBird": false
  },
  {
    "id": 187,
    "date": "4/15/2025",
    "name": "White-faced Ibis",
    "location": "Lancaster",
    "lat": 40.729146,
    "lng": -96.789615,
    "photoId": 634054720,
    "audioId": 637203188,
    "lifeBird": false,
    "stateBird": false
  },
  {
    "id": 188,
    "date": "4/15/2025",
    "name": "White-winged Dove",
    "location": "Lancaster",
    "lat": 40.733951,
    "lng": -96.667436,
    "photoId": null,
    "audioId": null,
    "lifeBird": false,
    "stateBird": false
  },
  {
    "id": 189,
    "date": "4/16/2025",
    "name": "Forster's Tern",
    "location": "Lancaster",
    "lat": 40.599676,
    "lng": -96.645289,
    "photoId": 640340338,
    "audioId": null,
    "lifeBird": false,
    "stateBird": false
  },
  {
    "id": 190,
    "date": "4/16/2025",
    "name": "Cliff Swallow",
    "location": "Saunders",
    "lat": 41.2647484,
    "lng": -96.618282,
    "photoId": 638181408,
    "audioId": null,
    "lifeBird": false,
    "stateBird": false
  },
  {
    "id": 191,
    "date": "4/17/2025",
    "name": "Long-billed Curlew",
    "location": "Lancaster",
    "lat": 40.625435,
    "lng": -96.585164,
    "photoId": 633924394,
    "audioId": null,
    "lifeBird": false,
    "stateBird": false
  },
  {
    "id": 192,
    "date": "4/17/2025",
    "name": "Semipalmated Plover",
    "location": "Lancaster",
    "lat": 40.625435,
    "lng": -96.585164,
    "photoId": null,
    "audioId": null,
    "lifeBird": false,
    "stateBird": false
  },
  {
    "id": 193,
    "date": "4/17/2025",
    "name": "Cinnamon Teal",
    "location": "Lancaster",
    "lat": 40.625435,
    "lng": -96.585164,
    "photoId": 633924374,
    "audioId": null,
    "lifeBird": false,
    "stateBird": false
  },
  {
    "id": 194,
    "date": "4/17/2025",
    "name": "Broad-winged Hawk",
    "location": "Lancaster",
    "lat": 40.798937,
    "lng": -96.668065,
    "photoId": 642251146,
    "audioId": 634857601,
    "lifeBird": false,
    "stateBird": false
  },
  {
    "id": 195,
    "date": "4/18/2025",
    "name": "Lark Sparrow",
    "location": "Richardson",
    "lat": 40.271955,
    "lng": -95.562121,
    "photoId": 637614104,
    "audioId": 637625691,
    "lifeBird": false,
    "stateBird": false
  },
  {
    "id": 196,
    "date": "4/18/2025",
    "name": "Blue-gray Gnatcatcher",
    "location": "Richardson",
    "lat": 40.271955,
    "lng": -95.562121,
    "photoId": 642251099,
    "audioId": null,
    "lifeBird": false,
    "stateBird": false
  },
  {
    "id": 197,
    "date": "4/18/2025",
    "name": "Swainson's Hawk",
    "location": "Nemaha",
    "lat": 40.265134,
    "lng": -95.6717176,
    "photoId": 643297366,
    "audioId": null,
    "lifeBird": false,
    "stateBird": false
  },
  {
    "id": 198,
    "date": "4/19/2025",
    "name": "Wilson's Phalarope",
    "location": "Clay",
    "lat": 40.563351,
    "lng": -97.84534,
    "photoId": 634263286,
    "audioId": null,
    "lifeBird": false,
    "stateBird": false
  },
  {
    "id": 199,
    "date": "4/19/2025",
    "name": "Glossy Ibis",
    "location": "Clay",
    "lat": 40.446255,
    "lng": -98.098849,
    "photoId": 634054733,
    "audioId": null,
    "lifeBird": true,
    "stateBird": true
  },
  {
    "id": 200,
    "date": "4/19/2025",
    "name": "Hooded Warbler",
    "location": "Douglas",
    "lat": 41.2358052,
    "lng": -96.0591477,
    "photoId": 634055263,
    "audioId": 635608202,
    "lifeBird": false,
    "stateBird": false
  },
  {
    "id": 201,
    "date": "4/19/2025",
    "name": "Orange-crowned Warbler",
    "location": "Douglas",
    "lat": 41.2358052,
    "lng": -96.0591477,
    "photoId": 642251077,
    "audioId": 637743831,
    "lifeBird": false,
    "stateBird": false
  },
  {
    "id": 202,
    "date": "4/19/2025",
    "name": "Ruby-crowned Kinglet",
    "location": "Douglas",
    "lat": 41.2358052,
    "lng": -96.0591477,
    "photoId": 641530316,
    "audioId": null,
    "lifeBird": false,
    "stateBird": false
  },
  {
    "id": 203,
    "date": "4/21/2025",
    "name": "Northern Mockingbird",
    "location": "Lancaster",
    "lat": 40.729146,
    "lng": -96.789615,
    "photoId": null,
    "audioId": null,
    "lifeBird": false,
    "stateBird": false
  },
  {
    "id": 204,
    "date": "4/21/2025",
    "name": "Spotted Sandpiper",
    "location": "Lancaster",
    "lat": 40.729146,
    "lng": -96.789615,
    "photoId": 635033698,
    "audioId": 641547498,
    "lifeBird": false,
    "stateBird": false
  },
  {
    "id": 205,
    "date": "4/21/2025",
    "name": "Hudsonian Whimbrel",
    "location": "Clay",
    "lat": 40.563351,
    "lng": -97.84534,
    "photoId": 634185502,
    "audioId": null,
    "lifeBird": false,
    "stateBird": false
  },
  {
    "id": 206,
    "date": "4/22/2025",
    "name": "Willet",
    "location": "Platte",
    "lat": 41.48763453,
    "lng": -97.3592826,
    "photoId": 640367596,
    "audioId": 637740229,
    "lifeBird": false,
    "stateBird": false
  },
  {
    "id": 207,
    "date": "4/22/2025",
    "name": "Snowy Plover",
    "location": "Platte",
    "lat": 41.48763453,
    "lng": -97.3592826,
    "photoId": 634263173,
    "audioId": null,
    "lifeBird": false,
    "stateBird": false
  },
  {
    "id": 208,
    "date": "4/22/2025",
    "name": "Snowy Egret",
    "location": "Platte",
    "lat": 41.48763453,
    "lng": -97.3592826,
    "photoId": 641878123,
    "audioId": null,
    "lifeBird": false,
    "stateBird": false
  },
  {
    "id": 209,
    "date": "4/22/2025",
    "name": "Piping Plover",
    "location": "Clay",
    "lat": 40.446255,
    "lng": -98.098849,
    "photoId": 638163113,
    "audioId": null,
    "lifeBird": false,
    "stateBird": false
  },
  {
    "id": 210,
    "date": "4/23/2025",
    "name": "Common Yellowthroat",
    "location": "Lancaster",
    "lat": 40.77984,
    "lng": -96.635971,
    "photoId": null,
    "audioId": null,
    "lifeBird": false,
    "stateBird": false
  },
  {
    "id": 211,
    "date": "4/23/2025",
    "name": "Bank Swallow",
    "location": "Lancaster",
    "lat": 40.77984,
    "lng": -96.635971,
    "photoId": null,
    "audioId": null,
    "lifeBird": false,
    "stateBird": false
  },
  {
    "id": 212,
    "date": "4/23/2025",
    "name": "Eastern Warbling Vireo",
    "location": "Lancaster",
    "lat": 40.77984,
    "lng": -96.635971,
    "photoId": 641305680,
    "audioId": 634344471,
    "lifeBird": false,
    "stateBird": false
  },
  {
    "id": 213,
    "date": "4/23/2025",
    "name": "Gray Catbird",
    "location": "Lancaster",
    "lat": 40.729146,
    "lng": -96.789615,
    "photoId": null,
    "audioId": 637754623,
    "lifeBird": false,
    "stateBird": false
  },
  {
    "id": 214,
    "date": "4/23/2025",
    "name": "Stilt Sandpiper",
    "location": "Lancaster",
    "lat": 40.729146,
    "lng": -96.789615,
    "photoId": 634306930,
    "audioId": null,
    "lifeBird": false,
    "stateBird": false
  },
  {
    "id": 215,
    "date": "4/23/2025",
    "name": "Eastern Kingbird",
    "location": "Lancaster",
    "lat": 40.729146,
    "lng": -96.789615,
    "photoId": 636437086,
    "audioId": null,
    "lifeBird": false,
    "stateBird": false
  },
  {
    "id": 216,
    "date": "4/24/2025",
    "name": "Rose-breasted Grosbeak",
    "location": "Lancaster",
    "lat": 40.625435,
    "lng": -96.585164,
    "photoId": 635302655,
    "audioId": null,
    "lifeBird": false,
    "stateBird": false
  },
  {
    "id": 217,
    "date": "4/24/2025",
    "name": "Northern Yellow Warbler",
    "location": "Lancaster",
    "lat": 40.625435,
    "lng": -96.585164,
    "photoId": 637338124,
    "audioId": 634344516,
    "lifeBird": false,
    "stateBird": false
  },
  {
    "id": 218,
    "date": "4/24/2025",
    "name": "Green Heron",
    "location": "Lancaster",
    "lat": 40.625435,
    "lng": -96.585164,
    "photoId": null,
    "audioId": null,
    "lifeBird": false,
    "stateBird": false
  },
  {
    "id": 219,
    "date": "4/24/2025",
    "name": "Solitary Sandpiper",
    "location": "Lancaster",
    "lat": 40.625435,
    "lng": -96.585164,
    "photoId": null,
    "audioId": null,
    "lifeBird": false,
    "stateBird": false
  },
  {
    "id": 220,
    "date": "4/24/2025",
    "name": "Sora",
    "location": "Lancaster",
    "lat": 40.625435,
    "lng": -96.585164,
    "photoId": 637203198,
    "audioId": null,
    "lifeBird": false,
    "stateBird": false
  },
  {
    "id": 221,
    "date": "4/24/2025",
    "name": "Caspian Tern",
    "location": "Keith",
    "lat": 41.2420438,
    "lng": -101.677528,
    "photoId": 635302673,
    "audioId": null,
    "lifeBird": false,
    "stateBird": false
  },
  {
    "id": 222,
    "date": "4/25/2025",
    "name": "Clark's Grebe",
    "location": "Keith",
    "lat": 41.2895,
    "lng": -101.940021,
    "photoId": null,
    "audioId": null,
    "lifeBird": false,
    "stateBird": false
  },
  {
    "id": 223,
    "date": "4/25/2025",
    "name": "Clay-colored Sparrow",
    "location": "Keith",
    "lat": 41.306903,
    "lng": -102.037603,
    "photoId": 635033676,
    "audioId": null,
    "lifeBird": false,
    "stateBird": false
  },
  {
    "id": 224,
    "date": "4/25/2025",
    "name": "Burrowing Owl",
    "location": "Garden",
    "lat": 41.7609727,
    "lng": -102.4375534,
    "photoId": 636437536,
    "audioId": null,
    "lifeBird": false,
    "stateBird": false
  },
  {
    "id": 225,
    "date": "4/25/2025",
    "name": "Marsh Wren",
    "location": "Garden",
    "lat": 41.7609727,
    "lng": -102.4375534,
    "photoId": null,
    "audioId": 637896582,
    "lifeBird": false,
    "stateBird": false
  },
  {
    "id": 226,
    "date": "4/25/2025",
    "name": "Say's Phoebe",
    "location": "Garden",
    "lat": 41.7609727,
    "lng": -102.4375534,
    "photoId": 641220568,
    "audioId": null,
    "lifeBird": false,
    "stateBird": false
  },
  {
    "id": 227,
    "date": "4/26/2025",
    "name": "Thick-billed Longspur",
    "location": "Kimball",
    "lat": 41.0770625,
    "lng": -103.6703813,
    "photoId": null,
    "audioId": null,
    "lifeBird": false,
    "stateBird": false
  },
  {
    "id": 228,
    "date": "4/26/2025",
    "name": "Mountain Plover",
    "location": "Kimball",
    "lat": 41.0327386,
    "lng": -103.702624,
    "photoId": 634618943,
    "audioId": null,
    "lifeBird": false,
    "stateBird": false
  },
  {
    "id": 229,
    "date": "4/27/2025",
    "name": "Violet-green Swallow",
    "location": "Sioux",
    "lat": 42.733816,
    "lng": -103.84009,
    "photoId": 639811359,
    "audioId": null,
    "lifeBird": false,
    "stateBird": false
  },
  {
    "id": 230,
    "date": "4/27/2025",
    "name": "Black-bellied Plover",
    "location": "Sioux",
    "lat": 42.7202959,
    "lng": -103.8655249,
    "photoId": null,
    "audioId": null,
    "lifeBird": false,
    "stateBird": false
  },
  {
    "id": 231,
    "date": "4/27/2025",
    "name": "Chestnut-collared Longspur",
    "location": "Sioux",
    "lat": 42.6238805,
    "lng": -103.8932349,
    "photoId": null,
    "audioId": null,
    "lifeBird": false,
    "stateBird": false
  },
  {
    "id": 232,
    "date": "4/27/2025",
    "name": "White-rumped Sandpiper",
    "location": "Adams",
    "lat": 40.5675091,
    "lng": -98.3735231,
    "photoId": 637646800,
    "audioId": null,
    "lifeBird": false,
    "stateBird": false
  },
  {
    "id": 233,
    "date": "4/28/2025",
    "name": "Summer Tanager",
    "location": "Sarpy",
    "lat": 41.181398,
    "lng": -95.915141,
    "photoId": 635033663,
    "audioId": 634661010,
    "lifeBird": false,
    "stateBird": false
  },
  {
    "id": 234,
    "date": "4/28/2025",
    "name": "Wood Thrush",
    "location": "Sarpy",
    "lat": 41.181398,
    "lng": -95.915141,
    "photoId": null,
    "audioId": null,
    "lifeBird": false,
    "stateBird": false
  },
  {
    "id": 235,
    "date": "4/28/2025",
    "name": "Swainson's Thrush",
    "location": "Sarpy",
    "lat": 41.181398,
    "lng": -95.915141,
    "photoId": null,
    "audioId": null,
    "lifeBird": false,
    "stateBird": false
  },
  {
    "id": 236,
    "date": "4/28/2025",
    "name": "Great Crested Flycatcher",
    "location": "Sarpy",
    "lat": 41.181398,
    "lng": -95.915141,
    "photoId": 636052626,
    "audioId": null,
    "lifeBird": false,
    "stateBird": false
  },
  {
    "id": 237,
    "date": "4/28/2025",
    "name": "Chimney Swift",
    "location": "Sarpy",
    "lat": 41.181398,
    "lng": -95.915141,
    "photoId": null,
    "audioId": null,
    "lifeBird": false,
    "stateBird": false
  },
  {
    "id": 238,
    "date": "4/28/2025",
    "name": "Prothonotary Warbler",
    "location": "Sarpy",
    "lat": 41.177508,
    "lng": -95.893867,
    "photoId": 634631118,
    "audioId": 634631343,
    "lifeBird": false,
    "stateBird": false
  },
  {
    "id": 239,
    "date": "4/28/2025",
    "name": "Baltimore Oriole",
    "location": "Sarpy",
    "lat": 41.177508,
    "lng": -95.893867,
    "photoId": null,
    "audioId": null,
    "lifeBird": false,
    "stateBird": false
  },
  {
    "id": 240,
    "date": "4/28/2025",
    "name": "Palm Warbler",
    "location": "Sarpy",
    "lat": 41.2358052,
    "lng": -96.0591477,
    "photoId": 642390947,
    "audioId": 634631368,
    "lifeBird": false,
    "stateBird": false
  },
  {
    "id": 241,
    "date": "4/28/2025",
    "name": "Northern Waterthrush",
    "location": "Sarpy",
    "lat": 41.2358052,
    "lng": -96.0591477,
    "photoId": null,
    "audioId": 634661023,
    "lifeBird": false,
    "stateBird": false
  },
  {
    "id": 242,
    "date": "4/28/2025",
    "name": "Black-and-white Warbler",
    "location": "Sarpy",
    "lat": 41.1658012,
    "lng": -96.0378676,
    "photoId": null,
    "audioId": null,
    "lifeBird": false,
    "stateBird": false
  },
  {
    "id": 243,
    "date": "4/28/2025",
    "name": "Least Flycatcher",
    "location": "Sarpy",
    "lat": 41.1658012,
    "lng": -96.0378676,
    "photoId": 636437068,
    "audioId": 637615744,
    "lifeBird": false,
    "stateBird": false
  },
  {
    "id": 244,
    "date": "4/30/2025",
    "name": "Indigo Bunting",
    "location": "Lancaster",
    "lat": 40.743498,
    "lng": -96.714382,
    "photoId": 643084562,
    "audioId": 637337273,
    "lifeBird": false,
    "stateBird": false
  },
  {
    "id": 245,
    "date": "4/30/2025",
    "name": "Tennessee Warbler",
    "location": "Lancaster",
    "lat": 40.743498,
    "lng": -96.714382,
    "photoId": 641220795,
    "audioId": null,
    "lifeBird": false,
    "stateBird": false
  },
  {
    "id": 246,
    "date": "4/30/2025",
    "name": "Red-eyed Vireo",
    "location": "Lancaster",
    "lat": 40.743498,
    "lng": -96.714382,
    "photoId": null,
    "audioId": 637896589,
    "lifeBird": false,
    "stateBird": false
  },
  {
    "id": 247,
    "date": "4/30/2025",
    "name": "Western Kingbird",
    "location": "Lancaster",
    "lat": 40.7409261,
    "lng": -96.7291421,
    "photoId": null,
    "audioId": 637896530,
    "lifeBird": false,
    "stateBird": false
  },
  {
    "id": 248,
    "date": "5/1/2025",
    "name": "Nashville Warbler",
    "location": "Lancaster",
    "lat": 40.778128,
    "lng": -96.720899,
    "photoId": null,
    "audioId": null,
    "lifeBird": false,
    "stateBird": false
  },
  {
    "id": 249,
    "date": "5/1/2025",
    "name": "Yellow-throated Vireo",
    "location": "Lancaster",
    "lat": 40.778128,
    "lng": -96.720899,
    "photoId": 636052264,
    "audioId": null,
    "lifeBird": false,
    "stateBird": false
  },
  {
    "id": 250,
    "date": "5/1/2025",
    "name": "Sedge Wren",
    "location": "Lancaster",
    "lat": 40.881327,
    "lng": -96.657746,
    "photoId": 642381516,
    "audioId": null,
    "lifeBird": false,
    "stateBird": false
  },
  {
    "id": 251,
    "date": "5/1/2025",
    "name": "Black Tern",
    "location": "Lancaster",
    "lat": 40.599676,
    "lng": -96.645289,
    "photoId": 636052301,
    "audioId": null,
    "lifeBird": false,
    "stateBird": false
  },
  {
    "id": 252,
    "date": "5/2/2025",
    "name": "Blue-winged Warbler",
    "location": "Lancaster",
    "lat": 40.778128,
    "lng": -96.720899,
    "photoId": 634857192,
    "audioId": 634857519,
    "lifeBird": false,
    "stateBird": false
  },
  {
    "id": 253,
    "date": "5/2/2025",
    "name": "Black-bellied Whistling-Duck",
    "location": "Sarpy",
    "lat": 41.155477,
    "lng": -96.079552,
    "photoId": 634885657,
    "audioId": 634885734,
    "lifeBird": false,
    "stateBird": false
  },
  {
    "id": 254,
    "date": "5/3/2025",
    "name": "Orchard Oriole",
    "location": "Sarpy",
    "lat": 41.177508,
    "lng": -95.893867,
    "photoId": null,
    "audioId": null,
    "lifeBird": false,
    "stateBird": false
  },
  {
    "id": 255,
    "date": "5/3/2025",
    "name": "American Redstart",
    "location": "Sarpy",
    "lat": 41.177508,
    "lng": -95.893867,
    "photoId": null,
    "audioId": 637625911,
    "lifeBird": false,
    "stateBird": false
  },
  {
    "id": 256,
    "date": "5/3/2025",
    "name": "Gray-cheeked Thrush",
    "location": "Sarpy",
    "lat": 41.177508,
    "lng": -95.893867,
    "photoId": 635606604,
    "audioId": null,
    "lifeBird": false,
    "stateBird": false
  },
  {
    "id": 257,
    "date": "5/3/2025",
    "name": "Scarlet Tanager",
    "location": "Sarpy",
    "lat": 41.177508,
    "lng": -95.893867,
    "photoId": null,
    "audioId": 635606557,
    "lifeBird": false,
    "stateBird": false
  },
  {
    "id": 258,
    "date": "5/3/2025",
    "name": "Ovenbird",
    "location": "Sarpy",
    "lat": 41.177508,
    "lng": -95.893867,
    "photoId": null,
    "audioId": 635606737,
    "lifeBird": false,
    "stateBird": false
  },
  {
    "id": 259,
    "date": "5/3/2025",
    "name": "Black-throated Green Warbler",
    "location": "Sarpy",
    "lat": 41.181398,
    "lng": -95.915141,
    "photoId": 634965591,
    "audioId": null,
    "lifeBird": false,
    "stateBird": false
  },
  {
    "id": 260,
    "date": "5/3/2025",
    "name": "Eastern Wood-Pewee",
    "location": "Sarpy",
    "lat": 41.181398,
    "lng": -95.915141,
    "photoId": 637338127,
    "audioId": null,
    "lifeBird": false,
    "stateBird": false
  },
  {
    "id": 261,
    "date": "5/3/2025",
    "name": "Short-billed Dowitcher",
    "location": "Lancaster",
    "lat": 40.881327,
    "lng": -96.657746,
    "photoId": 634964845,
    "audioId": null,
    "lifeBird": false,
    "stateBird": false
  },
  {
    "id": 262,
    "date": "5/4/2025",
    "name": "Bell's Vireo",
    "location": "Lancaster",
    "lat": 40.68509252,
    "lng": -96.8380477,
    "photoId": 641220793,
    "audioId": null,
    "lifeBird": false,
    "stateBird": false
  },
  {
    "id": 263,
    "date": "5/5/2025",
    "name": "Golden-winged Warbler",
    "location": "Lancaster",
    "lat": 40.766759,
    "lng": -96.717047,
    "photoId": 635103111,
    "audioId": 635103485,
    "lifeBird": false,
    "stateBird": false
  },
  {
    "id": 264,
    "date": "5/5/2025",
    "name": "Upland Sandpiper",
    "location": "Clay",
    "lat": 40.433493,
    "lng": -97.976672,
    "photoId": null,
    "audioId": null,
    "lifeBird": false,
    "stateBird": false
  },
  {
    "id": 265,
    "date": "5/5/2025",
    "name": "Buff-breasted Sandpiper",
    "location": "Clay",
    "lat": 40.550735,
    "lng": -97.974116,
    "photoId": null,
    "audioId": null,
    "lifeBird": false,
    "stateBird": false
  },
  {
    "id": 266,
    "date": "5/6/2025",
    "name": "Little Blue Heron",
    "location": "Thomas",
    "lat": 41.903101,
    "lng": -100.296764,
    "photoId": 635302063,
    "audioId": null,
    "lifeBird": false,
    "stateBird": true
  },
  {
    "id": 267,
    "date": "5/6/2025",
    "name": "American Bittern",
    "location": "Grant",
    "lat": 42.0089992,
    "lng": -101.833992,
    "photoId": 637628414,
    "audioId": 637625220,
    "lifeBird": false,
    "stateBird": false
  },
  {
    "id": 268,
    "date": "5/6/2025",
    "name": "Red-necked Phalarope",
    "location": "Sheridan",
    "lat": 42.06242,
    "lng": -102.5087756,
    "photoId": 635302809,
    "audioId": null,
    "lifeBird": false,
    "stateBird": false
  },
  {
    "id": 269,
    "date": "5/6/2025",
    "name": "Lark Bunting",
    "location": "Box Butte",
    "lat": 42.0912291,
    "lng": -102.8132094,
    "photoId": null,
    "audioId": null,
    "lifeBird": false,
    "stateBird": false
  },
  {
    "id": 270,
    "date": "5/6/2025",
    "name": "Yellow-breasted Chat",
    "location": "Scotts Bluff",
    "lat": 41.816706,
    "lng": -103.68613,
    "photoId": 637614882,
    "audioId": null,
    "lifeBird": false,
    "stateBird": false
  },
  {
    "id": 271,
    "date": "5/6/2025",
    "name": "White-throated Swift",
    "location": "Scotts Bluff",
    "lat": 41.708053,
    "lng": -103.678265,
    "photoId": null,
    "audioId": 635235344,
    "lifeBird": false,
    "stateBird": false
  },
  {
    "id": 272,
    "date": "5/6/2025",
    "name": "Common Poorwill",
    "location": "Scotts Bluff",
    "lat": 41.708053,
    "lng": -103.678265,
    "photoId": null,
    "audioId": 637626215,
    "lifeBird": false,
    "stateBird": false
  },
  {
    "id": 273,
    "date": "5/7/2025",
    "name": "Black-headed Grosbeak",
    "location": "Scotts Bluff",
    "lat": 41.816706,
    "lng": -103.68613,
    "photoId": 636437017,
    "audioId": null,
    "lifeBird": false,
    "stateBird": false
  },
  {
    "id": 274,
    "date": "5/7/2025",
    "name": "Green-tailed Towhee",
    "location": "Kimball",
    "lat": 41.22709,
    "lng": -103.818468,
    "photoId": 635301298,
    "audioId": null,
    "lifeBird": true,
    "stateBird": true
  },
  {
    "id": 275,
    "date": "5/8/2025",
    "name": "Blackpoll Warbler",
    "location": "Lancaster",
    "lat": 40.766759,
    "lng": -96.717047,
    "photoId": null,
    "audioId": 637742053,
    "lifeBird": false,
    "stateBird": false
  },
  {
    "id": 276,
    "date": "5/8/2025",
    "name": "Dickcissel",
    "location": "Lancaster",
    "lat": 40.68509252,
    "lng": -96.8380477,
    "photoId": 639115866,
    "audioId": 637337270,
    "lifeBird": false,
    "stateBird": false
  },
  {
    "id": 277,
    "date": "5/8/2025",
    "name": "Bobolink",
    "location": "Lancaster",
    "lat": 40.68509252,
    "lng": -96.8380477,
    "photoId": 637897010,
    "audioId": 637625349,
    "lifeBird": false,
    "stateBird": false
  },
  {
    "id": 278,
    "date": "5/9/2025",
    "name": "Ruddy Turnstone",
    "location": "Platte",
    "lat": 41.48763453,
    "lng": -97.3592826,
    "photoId": 635380274,
    "audioId": null,
    "lifeBird": false,
    "stateBird": true
  },
  {
    "id": 279,
    "date": "5/9/2025",
    "name": "Sanderling",
    "location": "Platte",
    "lat": 41.48763453,
    "lng": -97.3592826,
    "photoId": 635380277,
    "audioId": null,
    "lifeBird": false,
    "stateBird": false
  },
  {
    "id": 280,
    "date": "5/9/2025",
    "name": "Cape May Warbler",
    "location": "Douglas",
    "lat": 41.2358052,
    "lng": -96.0591477,
    "photoId": 635380283,
    "audioId": 635385324,
    "lifeBird": false,
    "stateBird": true
  },
  {
    "id": 281,
    "date": "5/9/2025",
    "name": "Yellow-billed Cuckoo",
    "location": "Cass",
    "lat": 40.987691,
    "lng": -96.219548,
    "photoId": 643659011,
    "audioId": null,
    "lifeBird": false,
    "stateBird": false
  },
  {
    "id": 282,
    "date": "5/10/2025",
    "name": "Acadian Flycatcher",
    "location": "Sarpy",
    "lat": 41.177508,
    "lng": -95.893867,
    "photoId": null,
    "audioId": 635534006,
    "lifeBird": false,
    "stateBird": false
  },
  {
    "id": 283,
    "date": "5/10/2025",
    "name": "Ruby-throated Hummingbird",
    "location": "Sarpy",
    "lat": 41.177508,
    "lng": -95.893867,
    "photoId": null,
    "audioId": null,
    "lifeBird": false,
    "stateBird": false
  },
  {
    "id": 284,
    "date": "5/10/2025",
    "name": "Chestnut-sided Warbler",
    "location": "Sarpy",
    "lat": 41.181398,
    "lng": -95.915141,
    "photoId": 636052607,
    "audioId": null,
    "lifeBird": false,
    "stateBird": true
  },
  {
    "id": 285,
    "date": "5/10/2025",
    "name": "Scissor-tailed Flycatcher",
    "location": "Pawnee",
    "lat": 40.144104,
    "lng": -96.083741,
    "photoId": 635533419,
    "audioId": null,
    "lifeBird": false,
    "stateBird": false
  },
  {
    "id": 286,
    "date": "5/10/2025",
    "name": "Common Nighthawk",
    "location": "Nemaha",
    "lat": 40.2326583,
    "lng": -95.8357403,
    "photoId": 639810537,
    "audioId": null,
    "lifeBird": false,
    "stateBird": false
  },
  {
    "id": 287,
    "date": "5/10/2025",
    "name": "Eastern Whip-poor-will",
    "location": "Nemaha",
    "lat": 40.271955,
    "lng": -95.562121,
    "photoId": null,
    "audioId": null,
    "lifeBird": false,
    "stateBird": false
  },
  {
    "id": 288,
    "date": "5/10/2025",
    "name": "Chuck-will's-widow",
    "location": "Nemaha",
    "lat": 40.271955,
    "lng": -95.562121,
    "photoId": null,
    "audioId": 635534023,
    "lifeBird": false,
    "stateBird": false
  },
  {
    "id": 289,
    "date": "5/11/2025",
    "name": "Kentucky Warbler",
    "location": "Richardson",
    "lat": 40.244983,
    "lng": -95.533001,
    "photoId": null,
    "audioId": null,
    "lifeBird": false,
    "stateBird": false
  },
  {
    "id": 290,
    "date": "5/11/2025",
    "name": "Black-billed Cuckoo",
    "location": "Richardson",
    "lat": 40.244983,
    "lng": -95.533001,
    "photoId": null,
    "audioId": null,
    "lifeBird": false,
    "stateBird": true
  },
  {
    "id": 291,
    "date": "5/11/2025",
    "name": "Blue-headed Vireo",
    "location": "Richardson",
    "lat": 40.244983,
    "lng": -95.533001,
    "photoId": 641876933,
    "audioId": null,
    "lifeBird": false,
    "stateBird": false
  },
  {
    "id": 292,
    "date": "5/13/2025",
    "name": "American Barn Owl",
    "location": "Lancaster",
    "lat": 40.881327,
    "lng": -96.657746,
    "photoId": 635685349,
    "audioId": null,
    "lifeBird": false,
    "stateBird": false
  },
  {
    "id": 293,
    "date": "5/13/2025",
    "name": "Blue Grosbeak",
    "location": "Lancaster",
    "lat": 40.778128,
    "lng": -96.720899,
    "photoId": 635685523,
    "audioId": 635685636,
    "lifeBird": false,
    "stateBird": false
  },
  {
    "id": 294,
    "date": "5/13/2025",
    "name": "Olive-sided Flycatcher",
    "location": "Lancaster",
    "lat": 40.781009,
    "lng": -96.676297,
    "photoId": null,
    "audioId": null,
    "lifeBird": false,
    "stateBird": false
  },
  {
    "id": 295,
    "date": "5/14/2025",
    "name": "Alder Flycatcher",
    "location": "Lancaster",
    "lat": 40.765901,
    "lng": -96.675701,
    "photoId": 636052313,
    "audioId": null,
    "lifeBird": false,
    "stateBird": false
  },
  {
    "id": 296,
    "date": "5/14/2025",
    "name": "Canada Warbler",
    "location": "Lancaster",
    "lat": 40.765901,
    "lng": -96.675701,
    "photoId": null,
    "audioId": 635759364,
    "lifeBird": false,
    "stateBird": false
  },
  {
    "id": 297,
    "date": "5/14/2025",
    "name": "Mourning Warbler",
    "location": "Lancaster",
    "lat": 40.778128,
    "lng": -96.720899,
    "photoId": 635755215,
    "audioId": 636199970,
    "lifeBird": true,
    "stateBird": true
  },
  {
    "id": 298,
    "date": "5/14/2025",
    "name": "Bay-breasted Warbler",
    "location": "Lancaster",
    "lat": 40.778128,
    "lng": -96.720899,
    "photoId": 635755494,
    "audioId": null,
    "lifeBird": false,
    "stateBird": false
  },
  {
    "id": 299,
    "date": "5/15/2025",
    "name": "Philadelphia Vireo",
    "location": "Lancaster",
    "lat": 40.778128,
    "lng": -96.720899,
    "photoId": 635819608,
    "audioId": 635819612,
    "lifeBird": false,
    "stateBird": false
  },
  {
    "id": 300,
    "date": "5/16/2025",
    "name": "Magnolia Warbler",
    "location": "Burt",
    "lat": 41.752716,
    "lng": -96.284595,
    "photoId": 636052526,
    "audioId": null,
    "lifeBird": false,
    "stateBird": false
  },
  {
    "id": 301,
    "date": "5/16/2025",
    "name": "Neotropic Cormorant",
    "location": "Dakota",
    "lat": 42.372108,
    "lng": -96.578725,
    "photoId": 641606976,
    "audioId": null,
    "lifeBird": false,
    "stateBird": true
  },
  {
    "id": 302,
    "date": "5/16/2025",
    "name": "Wilson's Warbler",
    "location": "Dakota",
    "lat": 42.486136,
    "lng": -96.408256,
    "photoId": 641530230,
    "audioId": null,
    "lifeBird": false,
    "stateBird": false
  },
  {
    "id": 303,
    "date": "5/17/2025",
    "name": "Willow Flycatcher",
    "location": "Dakota",
    "lat": 42.317616,
    "lng": -96.591222,
    "photoId": null,
    "audioId": 637896546,
    "lifeBird": false,
    "stateBird": false
  },
  {
    "id": 304,
    "date": "5/18/2025",
    "name": "Least Tern",
    "location": "Dixon",
    "lat": 42.601249,
    "lng": -96.71565,
    "photoId": 636976552,
    "audioId": null,
    "lifeBird": false,
    "stateBird": false
  },
  {
    "id": 305,
    "date": "5/18/2025",
    "name": "Veery",
    "location": "Dixon",
    "lat": 42.601249,
    "lng": -96.71565,
    "photoId": 636436830,
    "audioId": null,
    "lifeBird": true,
    "stateBird": true
  },
  {
    "id": 306,
    "date": "5/18/2025",
    "name": "Connecticut Warbler",
    "location": "Lancaster",
    "lat": 40.778128,
    "lng": -96.720899,
    "photoId": null,
    "audioId": 636092898,
    "lifeBird": true,
    "stateBird": true
  },
  {
    "id": 307,
    "date": "5/20/2025",
    "name": "Western Wood-Pewee",
    "location": "Scotts Bluff",
    "lat": 41.93277053,
    "lng": -103.4919188,
    "photoId": 639810556,
    "audioId": 637897516,
    "lifeBird": false,
    "stateBird": false
  },
  {
    "id": 308,
    "date": "5/20/2025",
    "name": "Bullock's Oriole",
    "location": "Scotts Bluff",
    "lat": 41.93277053,
    "lng": -103.4919188,
    "photoId": 641220614,
    "audioId": null,
    "lifeBird": false,
    "stateBird": false
  },
  {
    "id": 309,
    "date": "5/20/2025",
    "name": "Western Tanager",
    "location": "Scotts Bluff",
    "lat": 41.708053,
    "lng": -103.678265,
    "photoId": 636437092,
    "audioId": null,
    "lifeBird": false,
    "stateBird": false
  },
  {
    "id": 310,
    "date": "5/20/2025",
    "name": "Cassin's Kingbird",
    "location": "Kimball",
    "lat": 41.168775,
    "lng": -104.02971,
    "photoId": 636436917,
    "audioId": 639794678,
    "lifeBird": false,
    "stateBird": false
  },
  {
    "id": 311,
    "date": "5/21/2025",
    "name": "Black-chinned Hummingbird",
    "location": "Scotts Bluff",
    "lat": 41.708053,
    "lng": -103.678265,
    "photoId": 636436957,
    "audioId": 639794682,
    "lifeBird": false,
    "stateBird": false
  },
  {
    "id": 312,
    "date": "5/21/2025",
    "name": "Mississippi Kite",
    "location": "Scotts Bluff",
    "lat": 41.823152,
    "lng": -103.663852,
    "photoId": 640437114,
    "audioId": null,
    "lifeBird": false,
    "stateBird": false
  },
  {
    "id": 313,
    "date": "5/21/2025",
    "name": "Lazuli Bunting",
    "location": "Scotts Bluff",
    "lat": 41.764578,
    "lng": -103.825583,
    "photoId": null,
    "audioId": 637316296,
    "lifeBird": false,
    "stateBird": false
  },
  {
    "id": 314,
    "date": "5/22/2025",
    "name": "Plumbeous Vireo",
    "location": "Kimball",
    "lat": 41.2331389,
    "lng": -103.649361,
    "photoId": 639811352,
    "audioId": null,
    "lifeBird": false,
    "stateBird": false
  },
  {
    "id": 315,
    "date": "5/22/2025",
    "name": "Broad-tailed Hummingbird",
    "location": "Scotts Bluff",
    "lat": 41.708053,
    "lng": -103.678265,
    "photoId": 637629903,
    "audioId": null,
    "lifeBird": false,
    "stateBird": false
  },
  {
    "id": 316,
    "date": "5/23/2025",
    "name": "Western Flycatcher",
    "location": "Kimball",
    "lat": 41.22709,
    "lng": -103.818468,
    "photoId": 636667058,
    "audioId": 639794683,
    "lifeBird": false,
    "stateBird": false
  },
  {
    "id": 317,
    "date": "5/23/2025",
    "name": "Western Warbling Vireo",
    "location": "Kimball",
    "lat": 41.22709,
    "lng": -103.818468,
    "photoId": 636437264,
    "audioId": null,
    "lifeBird": false,
    "stateBird": false
  },
  {
    "id": 318,
    "date": "5/23/2025",
    "name": "Western Sandpiper",
    "location": "Kimball",
    "lat": 41.22709,
    "lng": -103.818468,
    "photoId": 641530306,
    "audioId": null,
    "lifeBird": true,
    "stateBird": true
  },
  {
    "id": 319,
    "date": "5/23/2025",
    "name": "Brewer's Sparrow",
    "location": "Sioux",
    "lat": 42.62990698,
    "lng": -104.0527093,
    "photoId": 637629645,
    "audioId": null,
    "lifeBird": false,
    "stateBird": false
  },
  {
    "id": 320,
    "date": "5/24/2025",
    "name": "Black-crowned Night Heron",
    "location": "Sheridan",
    "lat": 42.05340889,
    "lng": -102.4086472,
    "photoId": 636437523,
    "audioId": null,
    "lifeBird": false,
    "stateBird": false
  },
  {
    "id": 321,
    "date": "5/24/2025",
    "name": "Blackburnian Warbler",
    "location": "Adams",
    "lat": 40.59392858,
    "lng": -98.41315419,
    "photoId": 636437550,
    "audioId": null,
    "lifeBird": false,
    "stateBird": false
  },
  {
    "id": 322,
    "date": "5/26/2025",
    "name": "Yellow-bellied Flycatcher",
    "location": "Douglas",
    "lat": 41.20981148,
    "lng": -96.15033983,
    "photoId": 636564409,
    "audioId": 636564867,
    "lifeBird": false,
    "stateBird": false
  },
  {
    "id": 323,
    "date": "5/30/2025",
    "name": "Common Tern",
    "location": "Lancaster",
    "lat": 40.824838,
    "lng": -96.7415068,
    "photoId": 637615238,
    "audioId": null,
    "lifeBird": false,
    "stateBird": false
  },
  {
    "id": 324,
    "date": "6/1/2025",
    "name": "Henslow's Sparrow",
    "location": "Pawnee",
    "lat": 40.03087124,
    "lng": -96.3191776,
    "photoId": 636884720,
    "audioId": 636884867,
    "lifeBird": false,
    "stateBird": false
  },
  {
    "id": 325,
    "date": "6/6/2025",
    "name": "Least Bittern",
    "location": "Douglas",
    "lat": 41.32758476,
    "lng": -96.19619346,
    "photoId": null,
    "audioId": 637149052,
    "lifeBird": true,
    "stateBird": true
  },
  {
    "id": 326,
    "date": "6/12/2025",
    "name": "Cassin's Sparrow",
    "location": "Chase",
    "lat": 40.4514821,
    "lng": -101.6013528,
    "photoId": 637613971,
    "audioId": 637613977,
    "lifeBird": false,
    "stateBird": false
  },
  {
    "id": 327,
    "date": "6/14/2025",
    "name": "Sage Thrasher",
    "location": "Sioux",
    "lat": 42.62990698,
    "lng": -104.0527093,
    "photoId": 637647668,
    "audioId": null,
    "lifeBird": false,
    "stateBird": true
  },
  {
    "id": 328,
    "date": "6/14/2025",
    "name": "Lesser Goldfinch",
    "location": "Scotts Bluff",
    "lat": 41.708053,
    "lng": -103.678265,
    "photoId": 639810585,
    "audioId": null,
    "lifeBird": false,
    "stateBird": false
  },
  {
    "id": 329,
    "date": "6/26/2025",
    "name": "Red-throated Loon",
    "location": "Keith",
    "lat": 41.213919,
    "lng": -101.665138,
    "photoId": 638157595,
    "audioId": null,
    "lifeBird": false,
    "stateBird": true
  },
  {
    "id": 330,
    "date": "7/18/2025",
    "name": "Yellow-crowned Night Heron",
    "location": "Dodge",
    "lat": 41.45866117,
    "lng": -96.50561738,
    "photoId": 639064157,
    "audioId": null,
    "lifeBird": false,
    "stateBird": false
  },
  {
    "id": 331,
    "date": "7/31/2025",
    "name": "Rufous Hummingbird",
    "location": "Lincoln",
    "lat": 41.1390512,
    "lng": -100.8001674,
    "photoId": 639654252,
    "audioId": null,
    "lifeBird": false,
    "stateBird": false
  },
  {
    "id": 332,
    "date": "8/1/2025",
    "name": "Calliope Hummingbird",
    "location": "Scotts Bluff",
    "lat": 41.708053,
    "lng": -103.678265,
    "photoId": 639795388,
    "audioId": null,
    "lifeBird": true,
    "stateBird": true
  },
  {
    "id": 333,
    "date": "8/2/2025",
    "name": "White-eyed Vireo",
    "location": "Sioux",
    "lat": 42.76764,
    "lng": -103.9278048,
    "photoId": 639795114,
    "audioId": 639794688,
    "lifeBird": false,
    "stateBird": false
  },
  {
    "id": 334,
    "date": "8/11/2025",
    "name": "Arctic Tern",
    "location": "Scotts Bluff",
    "lat": 41.93277053,
    "lng": -103.4919188,
    "photoId": 640179117,
    "audioId": null,
    "lifeBird": true,
    "stateBird": true
  },
  {
    "id": 335,
    "date": "8/15/2025",
    "name": "Long-tailed Jaeger",
    "location": "Lancaster",
    "lat": 40.83092948,
    "lng": -96.71778687,
    "photoId": 640332519,
    "audioId": null,
    "lifeBird": false,
    "stateBird": false
  },
  {
    "id": 336,
    "date": "8/17/2025",
    "name": "Swallow-tailed Kite",
    "location": "Lancaster",
    "lat": 40.78474179,
    "lng": -96.74830767,
    "photoId": 640436208,
    "audioId": null,
    "lifeBird": false,
    "stateBird": true
  },
  {
    "id": 337,
    "date": "8/26/2025",
    "name": "White Ibis",
    "location": "Keith",
    "lat": 41.2895,
    "lng": -101.940021,
    "photoId": 640913385,
    "audioId": null,
    "lifeBird": false,
    "stateBird": false
  },
  {
    "id": 338,
    "date": "8/29/2025",
    "name": "MacGillivray's Warbler",
    "location": "Kimball",
    "lat": 41.22709,
    "lng": -103.818468,
    "photoId": 642247033,
    "audioId": 641021957,
    "lifeBird": false,
    "stateBird": false
  },
  {
    "id": 339,
    "date": "8/29/2025",
    "name": "Gray Flycatcher",
    "location": "Kimball",
    "lat": 41.22709,
    "lng": -103.818468,
    "photoId": null,
    "audioId": null,
    "lifeBird": true,
    "stateBird": true
  },
  {
    "id": 340,
    "date": "8/30/2025",
    "name": "Hammond's Flycatcher",
    "location": "Kimball",
    "lat": 41.2331389,
    "lng": -103.649361,
    "photoId": 641546798,
    "audioId": null,
    "lifeBird": false,
    "stateBird": false
  },
  {
    "id": 341,
    "date": "8/31/2025",
    "name": "Cassin's Vireo",
    "location": "Scotts Bluff",
    "lat": 41.816706,
    "lng": -103.68613,
    "photoId": 641530246,
    "audioId": null,
    "lifeBird": false,
    "stateBird": false
  },
  {
    "id": 342,
    "date": "9/5/2025",
    "name": "Townsend's Warbler",
    "location": "Kimball",
    "lat": 41.22709,
    "lng": -103.818468,
    "photoId": 641530297,
    "audioId": null,
    "lifeBird": false,
    "stateBird": false
  },
  {
    "id": 343,
    "date": "9/16/2025",
    "name": "Sabine's Gull",
    "location": "Lancaster",
    "lat": 40.98373656,
    "lng": -96.86367205,
    "photoId": 641993878,
    "audioId": null,
    "lifeBird": false,
    "stateBird": false
  },
  {
    "id": 344,
    "date": "9/19/2025",
    "name": "Dusky Flycatcher",
    "location": "Kimball",
    "lat": 41.22709,
    "lng": -103.818468,
    "photoId": 642246543,
    "audioId": null,
    "lifeBird": true,
    "stateBird": true
  },
  {
    "id": 345,
    "date": "9/20/2025",
    "name": "Red-naped Sapsucker",
    "location": "Kimball",
    "lat": 41.168775,
    "lng": -104.02971,
    "photoId": 642251568,
    "audioId": null,
    "lifeBird": false,
    "stateBird": false
  },
  {
    "id": 346,
    "date": "9/25/2025",
    "name": "Pine Warbler",
    "location": "Deuel",
    "lat": 41.05966966,
    "lng": -102.093269,
    "photoId": 642648106,
    "audioId": 642450536,
    "lifeBird": false,
    "stateBird": false
  },
  {
    "id": 347,
    "date": "9/25/2025",
    "name": "Great Black-backed Gull",
    "location": "Keith",
    "lat": 41.24673895,
    "lng": -101.7048441,
    "photoId": 642649365,
    "audioId": null,
    "lifeBird": true,
    "stateBird": true
  },
  {
    "id": 348,
    "date": "9/26/2025",
    "name": "Sprague's Pipit",
    "location": "Cheyenne",
    "lat": 41.23975729,
    "lng": -103.2809214,
    "photoId": null,
    "audioId": 643238725,
    "lifeBird": false,
    "stateBird": false
  },
  {
    "id": 349,
    "date": "9/30/2025",
    "name": "LeConte's Sparrow",
    "location": "Lancaster",
    "lat": 40.881327,
    "lng": -96.657746,
    "photoId": 642705828,
    "audioId": 644262627,
    "lifeBird": false,
    "stateBird": false
  },
  {
    "id": 350,
    "date": "9/30/2025",
    "name": "Pacific Wren",
    "location": "Kimball",
    "lat": 41.22709,
    "lng": -103.818468,
    "photoId": 642755719,
    "audioId": null,
    "lifeBird": true,
    "stateBird": true
  },
  {
    "id": 351,
    "date": "10/2/2025",
    "name": "Nelson's Sparrow",
    "location": "Knox",
    "lat": 42.78566863,
    "lng": -98.08986372,
    "photoId": 642829690,
    "audioId": null,
    "lifeBird": false,
    "stateBird": false
  },
  {
    "id": 352,
    "date": "10/30/2025",
    "name": "Costa's Hummingbird",
    "location": "Lancaster",
    "lat": 40.80142287,
    "lng": -96.70855903,
    "photoId": 644361919,
    "audioId": 644479143,
    "lifeBird": true,
    "stateBird": true
  },
  {
    "id": 353,
    "date": "11/30/2025",
    "name": "American Black Duck",
    "location": "Douglas",
    "lat": 41.28225868,
    "lng": -96.32904286,
    "photoId": 646159373,
    "audioId": null,
    "lifeBird": false,
    "stateBird": true
  },
  {
    "id": 354,
    "date": "12/6/2025",
    "name": "Crested Caracara",
    "location": "Garden",
    "lat": 41.31834474,
    "lng": -102.0928039,
    "photoId": 646522787,
    "audioId": null,
    "lifeBird": false,
    "stateBird": true
  },
  {
    "id": 355,
    "date": "12/6/2025",
    "name": "Mexican Duck",
    "location": "Scotts Bluff",
    "lat": 41.83383249,
    "lng": -103.5827943,
    "photoId": 646660143,
    "audioId": null,
    "lifeBird": true,
    "stateBird": true
  },
  {
    "id": 356,
    "date": "12/13/2025",
    "name": "Evening Grosbeak",
    "location": "Sioux",
    "lat": 42.7679664,
    "lng": -103.9259527,
    "photoId": 647053701,
    "audioId": 647070768,
    "lifeBird": true,
    "stateBird": true
  }
]
